{
  "id": "986a53d2-e36d-4f91-8b69-80e5a45d5b7b",
  "name": "Community Makerspace",
  "location": {
    "address": {
      "number": "573",
      "street": "Danielle Dale",
      "city": "Sanchezville",
      "region": "Colorado",
      "country": "Japan",
      "postcode": "43268"
    },
    "gps_coordinates": "30.987773, -58.841382",
    "directions": "Located behind James, Conner and Williams",
    "city": "Sanchezville",
    "country": "Japan"
  },
  "facility_status": "Active",
  "owner": {
    "name": "Winters, Coleman and Smith",
    "location": {
      "address": {
        "number": "8768",
        "street": "Rhodes Ford",
        "city": "New Robert",
        "region": "Texas",
        "country": "Northern Mariana Islands",
        "postcode": "50117"
      },
      "gps_coordinates": "65.955499, -97.996557",
      "directions": "Located across from Tyler Group",
      "city": "New Robert",
      "country": "Northern Mariana Islands"
    },
    "contact_person": "Nicole Thompson",
    "bio": "Established in 2000, we specialize in Pre-emptive actuating Local Area Network",
    "website": "https://diaz.com",
    "languages": [
      "en"
    ],
    "mailing_list": "danielpatterson@lists.bowen.com",
    "contact": {
      "landline": "+1-792-398-8272",
      "mobile": "+1-666-772-2896",
      "email": "info@ford.com",
      "whatsapp": "+1-314-515-5682"
    },
    "social_media": {
      "other_urls": []
    }
  },
  "contact": {
    "name": "Torres-Lyons",
    "location": {
      "address": {
        "number": "8643",
        "street": "Pamela Locks",
        "city": "Beckside",
        "region": "Michigan",
        "country": "Reunion",
        "postcode": "73728"
      },
      "gps_coordinates": "46.337652, -41.175012",
      "directions": "Located across from Hernandez, Bennett and Potts",
      "city": "Beckside",
      "country": "Reunion"
    },
    "contact_person": "Lisa Vasquez",
    "bio": "Established in 2007, we specialize in Re-contextualized dedicated data-warehouse",
    "website": "https://carson.info",
    "languages": [
      "en",
      "es",
      "de"
    ],
    "mailing_list": "anelson@lists.hart.com",
    "images": [
      "images/tree.jpg"
    ],
    "contact": {
      "landline": "+1-244-504-2777",
      "mobile": "+1-916-488-7774",
      "email": "info@david-hampton.com",
      "whatsapp": "+1-687-642-5894"
    },
    "social_media": {
      "facebook": "https://facebook.com/prubio",
      "twitter": "@tammy67",
      "instagram": "@bishopbrooke",
      "other_urls": [
        "https://thornton-gonzales.com"
      ]
    }
  },
  "opening_hours": "Mon-Fri: 9:00-21:00",
  "description": "Public makerspace with basic fabrication equipment",
  "date_founded": "1990-06-18",
  "access_type": "Membership",
  "wheelchair_accessibility": "Partially accessible",
  "equipment": [
    {
      "equipment_type": "https://en.wikipedia.org/wiki/3D_printer",
      "manufacturing_process": "https://en.wikipedia.org/wiki/Fused_filament_fabrication",
      "make": "Prusa",
      "model": "S5",
      "serial_number": "SN933246",
      "condition": "Needs Maintenance",
      "notes": "Equipment notes: Common dream strong have.",
      "quantity": 5,
      "throughput": "27 parts/hour",
      "power_rating": 4468,
      "maintenance_schedule": "Every 12 months",
      "usage_levels": "Medium",
      "tolerance_class": "ISO 2768-c",
      "uninterrupted_power_supply": true,
      "computer_controlled": true,
      "materials_worked": [
        {
          "material_type": "https://en.wikipedia.org/wiki/PLA",
          "manufacturer": "Premium",
          "brand": "Standard",
          "supplier_location": {
            "address": {
              "number": "4544",
              "street": "Mejia Meadows",
              "city": "East Denise",
              "region": "Mississippi",
              "country": "China",
              "postcode": "83130"
            },
            "gps_coordinates": "69.886204, -73.574825",
            "directions": "Located across from Mcguire PLC",
            "city": "East Denise",
            "country": "China"
          }
        },
        {
          "material_type": "https://en.wikipedia.org/wiki/PETG",
          "manufacturer": "Premium",
          "brand": "Industrial",
          "supplier_location": {
            "address": {
              "number": "7074",
              "street": "Golden Knoll",
              "city": "Reeseshire",
              "region": "Hawaii",
              "country": "Norway",
              "postcode": "42929"
            },
            "gps_coordinates": "47.023192, -4.208093",
            "directions": "Located near Hernandez-Fischer",
            "city": "Reeseshire",
            "country": "Norway"
          }
        },
        {
          "material_type": "https://en.wikipedia.org/wiki/ABS",
          "manufacturer": "Premium",
          "brand": "Industrial",
          "supplier_location": {
            "address": {
              "number": "1908",
              "street": "Brandon Forges",
              "city": "Kristyburgh",
              "region": "Montana",
              "country": "Bulgaria",
              "postcode": "48837"
            },
            "gps_coordinates": "42.613564, -76.545838",
            "directions": "Located behind Ross-Carroll",
            "city": "Kristyburgh",
            "country": "Bulgaria"
          }
        },
        {
          "material_type": "https://en.wikipedia.org/wiki/TPU",
          "manufacturer": "Premium",
          "brand": "Standard",
          "supplier_location": {
            "address": {
              "number": "7988",
              "street": "Ricardo Glen",
              "city": "Kaylafort",
              "region": "Louisiana",
              "country": "Portugal",
              "postcode": "11006"
            },
            "gps_coordinates": "57.389338, 32.243173",
            "directions": "Located across from Baker-Blackwell",
            "city": "Kaylafort",
            "country": "Portugal"
          }
        }
      ],
      "build_volume": 27000000,
      "nozzle_size": 0.6,
      "detailed_capabilities": {
        "layer_height_range": "0.1-0.3mm",
        "print_speed": "20-100mm/s",
        "temperature_range": "200-280°C",
        "bed_temperature": "60-100°C",
        "supported_formats": [
          "STL",
          "OBJ",
          "3MF"
        ],
        "supported_materials": [
          "PLA",
          "PETG"
        ],
        "process_parameters": {
          "setup_time": "16 minutes",
          "cycle_time": "21 minutes",
          "changeover_time": "32 minutes"
        }
      }
    },
    {
      "equipment_type": "https://en.wikipedia.org/wiki/Laser_cutter",
      "manufacturing_process": "https://en.wikipedia.org/wiki/Laser_cutting",
      "make": "Trotec",
      "model": "Speedy 300",
      "serial_number": "SN527098",
      "condition": "Fair",
      "notes": "Equipment notes: Fall morning lot environmental low without.",
      "quantity": 2,
      "throughput": "30 parts/hour",
      "power_rating": 5604,
      "maintenance_schedule": "Every 12 months",
      "usage_levels": "High",
      "tolerance_class": "ISO 2768-f",
      "uninterrupted_power_supply": true,
      "computer_controlled": true,
      "materials_worked": [
        {
          "material_type": "https://en.wikipedia.org/wiki/Acrylic",
          "manufacturer": "Brand B",
          "brand": "Industrial",
          "supplier_location": {
            "address": {
              "number": "2150",
              "street": "Allen Course",
              "city": "Bauerton",
              "region": "Massachusetts",
              "country": "Madagascar",
              "postcode": "62125"
            },
            "gps_coordinates": "62.878198, -23.960042",
            "directions": "Located near Davis, Owens and Walters",
            "city": "Bauerton",
            "country": "Madagascar"
          }
        },
        {
          "material_type": "https://en.wikipedia.org/wiki/Wood",
          "manufacturer": "Brand B",
          "brand": "Professional",
          "supplier_location": {
            "address": {
              "number": "673",
              "street": "Johnson Mill",
              "city": "Lake Valerie",
              "region": "Mississippi",
              "country": "Serbia",
              "postcode": "07958"
            },
            "gps_coordinates": "25.962105, -118.395944",
            "directions": "Located near Townsend, Hurst and Bridges",
            "city": "Lake Valerie",
            "country": "Serbia"
          }
        },
        {
          "material_type": "https://en.wikipedia.org/wiki/Fabric",
          "manufacturer": "Premium",
          "brand": "Industrial",
          "supplier_location": {
            "address": {
              "number": "4796",
              "street": "Wilson Point",
              "city": "Lake Valeriefort",
              "region": "Nebraska",
              "country": "Ethiopia",
              "postcode": "41717"
            },
            "gps_coordinates": "61.158976, 37.782649",
            "directions": "Located across from Frederick LLC",
            "city": "Lake Valeriefort",
            "country": "Ethiopia"
          }
        },
        {
          "material_type": "https://en.wikipedia.org/wiki/Leather",
          "manufacturer": "Brand B",
          "brand": "Professional",
          "supplier_location": {
            "address": {
              "number": "3319",
              "street": "Campbell Lock",
              "city": "South George",
              "region": "New York",
              "country": "Germany",
              "postcode": "63238"
            },
            "gps_coordinates": "57.837318, 24.647359",
            "directions": "Located across from Murray Group",
            "city": "South George",
            "country": "Germany"
          }
        }
      ],
      "laser_power": 60,
      "working_surface": 600,
      "detailed_capabilities": {
        "cutting_thickness": "0.1-25mm",
        "engraving_depth": "0.1-2mm",
        "cutting_speed": "1-1000 mm/min",
        "resolution": "1000 DPI",
        "supported_formats": [
          "DXF",
          "AI",
          "PDF"
        ],
        "supported_materials": [
          "Fabric",
          "Wood",
          "Acrylic"
        ],
        "process_parameters": {
          "setup_time": "59 minutes",
          "cycle_time": "12 minutes",
          "changeover_time": "38 minutes"
        }
      }
    },
    {
      "equipment_type": "https://en.wikipedia.org/wiki/CNC_router",
      "manufacturing_process": "https://en.wikipedia.org/wiki/CNC_router",
      "make": "Axiom",
      "model": "Woodworker",
      "serial_number": "SN240353",
      "condition": "Needs Maintenance",
      "notes": "Equipment notes: Key whose year piece win stuff throughout.",
      "quantity": 1,
      "throughput": "90 parts/hour",
      "power_rating": 8176,
      "maintenance_schedule": "Every 9 months",
      "usage_levels": "High",
      "tolerance_class": "ISO 2768-f",
      "uninterrupted_power_supply": true,
      "computer_controlled": true,
      "extraction_system": true,
      "materials_worked": [
        {
          "material_type": "https://en.wikipedia.org/wiki/Wood",
          "manufacturer": "Brand A",
          "brand": "Professional",
          "supplier_location": {
            "address": {
              "number": "6879",
              "street": "Smith Circle",
              "city": "South Jorge",
              "region": "Nebraska",
              "country": "Japan",
              "postcode": "16906"
            },
            "gps_coordinates": "34.695716, -36.89465",
            "directions": "Located across from Collins-Parks",
            "city": "South Jorge",
            "country": "Japan"
          }
        },
        {
          "material_type": "https://en.wikipedia.org/wiki/Plastic",
          "manufacturer": "Brand A",
          "brand": "Industrial",
          "supplier_location": {
            "address": {
              "number": "2612",
              "street": "Laura Cliffs",
              "city": "Briannaborough",
              "region": "Kentucky",
              "country": "Cook Islands",
              "postcode": "08202"
            },
            "gps_coordinates": "43.196292, -25.637804",
            "directions": "Located near Kennedy, Shepherd and Meyers",
            "city": "Briannaborough",
            "country": "Cook Islands"
          }
        },
        {
          "material_type": "https://en.wikipedia.org/wiki/Aluminum",
          "manufacturer": "Premium",
          "brand": "Industrial",
          "supplier_location": {
            "address": {
              "number": "7501",
              "street": "Brooks Via",
              "city": "Rebeccaborough",
              "region": "Alaska",
              "country": "Heard Island and McDonald Islands",
              "postcode": "76858"
            },
            "gps_coordinates": "35.148244, -84.624239",
            "directions": "Located near Smith LLC",
            "city": "Rebeccaborough",
            "country": "Heard Island and McDonald Islands"
          }
        },
        {
          "material_type": "https://en.wikipedia.org/wiki/Foam",
          "manufacturer": "Generic",
          "brand": "Industrial",
          "supplier_location": {
            "address": {
              "number": "6206",
              "street": "Melinda Courts",
              "city": "Edwardborough",
              "region": "Oregon",
              "country": "Malta",
              "postcode": "86094"
            },
            "gps_coordinates": "36.008036, -44.355279",
            "directions": "Located near Mcclure Group",
            "city": "Edwardborough",
            "country": "Malta"
          }
        }
      ],
      "axes": 3,
      "working_surface": 300,
      "detailed_capabilities": {
        "tolerance": "±0.1mm",
        "spindle_speed": "5000-24000 RPM",
        "feed_rate": "100-5000 mm/min",
        "tool_diameter": "0.5-25mm",
        "cutting_depth": "0.1-50mm",
        "tolerance_range": "±0.150mm",
        "supported_materials": [
          "Foam",
          "Plastic",
          "Wood",
          "Aluminum"
        ],
        "process_parameters": {
          "setup_time": "47 minutes",
          "cycle_time": "21 minutes",
          "changeover_time": "41 minutes"
        }
      }
    }
  ],
  "manufacturing_processes": [
    "https://en.wikipedia.org/wiki/3D_printer",
    "https://en.wikipedia.org/wiki/Laser_cutter",
    "https://en.wikipedia.org/wiki/CNC_router"
  ],
  "typical_batch_size": "0 -- 50 units",
  "floor_size": 3169,
  "storage_capacity": "920 cubic meters",
  "certifications": [
    "Basic Safety"
  ],
  "backup_generator": true,
  "maintenance_schedule": "Every 5 months",
  "typical_products": [
    "Diverse empowering budgetary management",
    "Front-line client-server standardization",
    "Proactive high-level toolset",
    "Front-line national core"
  ],
  "circular_economy": {
    "applies_principles": true,
    "description": "Circular economy practices: Road speech tend go left treatment traditional.",
    "by_products": [
      "already",
      "along",
      "really"
    ]
  },
  "human_capacity": {
    "headcount": 31
  },
  "innovation_space": {
    "staff": 4,
    "learning_resources": [
      "Ergonomic upward-trending forecast",
      "Integrated scalable help-desk",
      "Implemented didactic support",
      "Seamless content-based methodology",
      "Enterprise-wide static utilization"
    ],
    "services": [
      "Quality-focused system-worthy flexibility",
      "Synchronized system-worthy leverage"
    ]
  },
  "record_data": {
    "date_created": "2025-10-12T22:56:38.754174",
    "created_by": {
      "name": "Miller, Dodson and Anderson",
      "location": {
        "address": {
          "number": "6485",
          "street": "Francis Bridge",
          "city": "North Theresaland",
          "region": "Iowa",
          "country": "Cook Islands",
          "postcode": "94651"
        },
        "gps_coordinates": "65.50429, -124.24769",
        "directions": "Located across from Johnston LLC",
        "city": "North Theresaland",
        "country": "Cook Islands"
      },
      "contact_person": "Cheryl Perez",
      "bio": "Established in 2006, we specialize in Pre-emptive value-added collaboration",
      "website": "https://lopez.com",
      "languages": [
        "en",
        "fr",
        "de"
      ],
      "mailing_list": "tracy85@lists.stevens.net",
      "contact": {
        "landline": "+1-648-803-8955",
        "mobile": "+1-201-948-1306",
        "email": "info@krause.org",
        "whatsapp": "+1-814-264-2898"
      },
      "social_media": {
        "facebook": "https://facebook.com/tmendez",
        "other_urls": []
      }
    },
    "data_collection_method": "Interview"
  }
}