{
  "id": "773690eb-d312-49e4-b00e-892b3241d12d",
  "name": "Electronics Assembly Facility 3",
  "location": {
    "address": {
      "number": "3589",
      "street": "Gay Forest",
      "city": "Houston",
      "region": "MD",
      "country": "US",
      "postcode": "98143"
    },
    "gps_coordinates": "29.7589382, -95.3676974",
    "city": "Houston",
    "country": "US"
  },
  "facility_status": "Active",
  "owner": {
    "name": "Hensley-Moore",
    "location": {
      "address": {
        "number": "8276",
        "street": "Valdez Mews",
        "city": "Indianapolis",
        "region": "KY",
        "country": "US",
        "postcode": "61281"
      },
      "gps_coordinates": "39.7683331, -86.1583502",
      "directions": "Located across from Chavez, Martin and Chung",
      "city": "Indianapolis",
      "country": "US"
    },
    "contact_person": "Michele Lam DDS",
    "website": "https://miller-thomas.biz",
    "images": [
      "images/history.jpg"
    ],
    "contact": {
      "landline": "+1-347-836-2766",
      "mobile": "+1-682-306-6796",
      "email": "info@skinner-preston.com"
    },
    "social_media": {
      "other_urls": []
    }
  },
  "contact": {
    "name": "Collins-Jimenez",
    "location": {
      "address": {
        "number": "7689",
        "street": "Jennifer Harbors",
        "city": "Los Angeles",
        "region": "IL",
        "country": "US",
        "postcode": "49774"
      },
      "gps_coordinates": "34.0536909, -118.242766",
      "city": "Los Angeles",
      "country": "US"
    },
    "bio": "Established in 1999, we specialize in Intuitive web-enabled application",
    "website": "https://coleman.com",
    "mailing_list": "tiffany18@lists.ho-serrano.net",
    "images": [
      "images/major.jpg",
      "images/full.jpg"
    ],
    "contact": {
      "landline": "+1-565-369-1402",
      "mobile": "+1-894-490-2531",
      "email": "info@bryant-hawkins.info",
      "whatsapp": "+1-824-574-5556"
    },
    "social_media": {
      "other_urls": []
    }
  },
  "opening_hours": "Mon-Fri: 6:00-19:00",
  "description": "Specialized in PCB assembly and electronics manufacturing",
  "date_founded": "1999-04-14",
  "access_type": "Restricted",
  "equipment": [
    {
      "equipment_type": "https://en.wikipedia.org/wiki/Pick_and_place",
      "manufacturing_process": "https://en.wikipedia.org/wiki/Pick_and_place",
      "make": "Generic",
      "model": "Model 815",
      "condition": "Fair",
      "computer_controlled": true
    },
    {
      "equipment_type": "https://en.wikipedia.org/wiki/Reflow_oven",
      "manufacturing_process": "https://en.wikipedia.org/wiki/Reflow_oven",
      "make": "Generic",
      "model": "Model 492",
      "condition": "Fair"
    },
    {
      "equipment_type": "https://en.wikipedia.org/wiki/AOI",
      "manufacturing_process": "https://en.wikipedia.org/wiki/AOI",
      "make": "Brand A",
      "model": "Model 391",
      "condition": "Good",
      "computer_controlled": true
    },
    {
      "equipment_type": "https://en.wikipedia.org/wiki/ICT",
      "manufacturing_process": "https://en.wikipedia.org/wiki/ICT",
      "make": "Generic",
      "model": "Model 998",
      "condition": "Fair",
      "computer_controlled": true
    }
  ],
  "manufacturing_processes": [
    "https://en.wikipedia.org/wiki/Electronics_manufacturing",
    "https://en.wikipedia.org/wiki/Test_equipment",
    "https://en.wikipedia.org/wiki/Quality_control"
  ],
  "typical_batch_size": "50 -- 500 units",
  "floor_size": 3900,
  "typical_materials": [],
  "certifications": [
    "RoHS Compliance",
    "IPC-J-STD-001",
    "ISO 9001:2015"
  ],
  "uninterrupted_power_supply": true,
  "road_access": true,
  "maintenance_schedule": "Every 3 months",
  "typical_products": [
    "Assimilated human-resource flexibility",
    "Multi-channeled background installation"
  ]
}