{
  "id": "6c880186-dd8e-4f9a-b871-dee7ea7aee59",
  "name": "Professional Machine Shop",
  "location": {
    "address": {
      "number": "1015",
      "street": "Catherine Spur",
      "city": "New Christopher",
      "region": "New York",
      "country": "Swaziland",
      "postcode": "40645"
    },
    "gps_coordinates": "63.769227, -68.984427",
    "directions": "Located near Hill, Williams and Le",
    "city": "New Christopher",
    "country": "Swaziland"
  },
  "facility_status": "Active",
  "owner": {
    "name": "White-Velasquez",
    "location": {
      "address": {
        "number": "371",
        "street": "Jenna Mews",
        "city": "Port Josephfort",
        "region": "Utah",
        "country": "Mexico",
        "postcode": "91737"
      },
      "gps_coordinates": "27.930891, -28.294527",
      "directions": "Located across from Brown-Munoz",
      "city": "Port Josephfort",
      "country": "Mexico"
    },
    "contact_person": "Brett Galvan",
    "bio": "Established in 2004, we specialize in Proactive methodical Graphic Interface",
    "website": "https://roberts.com",
    "languages": [
      "en",
      "fr",
      "es"
    ],
    "mailing_list": "deborah09@lists.koch-wolfe.org",
    "contact": {
      "landline": "+1-775-705-4849",
      "mobile": "+1-968-514-1391",
      "email": "info@mercer.net",
      "whatsapp": "+1-558-536-5100"
    },
    "social_media": {
      "instagram": "@chamberswyatt",
      "other_urls": [
        "https://anderson.com",
        "https://rodriguez.com"
      ]
    }
  },
  "contact": {
    "name": "Clark Group",
    "location": {
      "address": {
        "number": "7478",
        "street": "Nathaniel Vista",
        "city": "Benjaminbury",
        "region": "Hawaii",
        "country": "Costa Rica",
        "postcode": "57407"
      },
      "gps_coordinates": "41.656996, 6.158285",
      "directions": "Located across from Gibbs LLC",
      "city": "Benjaminbury",
      "country": "Costa Rica"
    },
    "contact_person": "Michelle May",
    "bio": "Established in 2005, we specialize in Streamlined actuating toolset",
    "website": "https://fisher-hendricks.net",
    "languages": [
      "fr"
    ],
    "mailing_list": "amandasmith@lists.alexander.com",
    "images": [
      "images/stuff.jpg",
      "images/win.jpg",
      "images/campaign.jpg"
    ],
    "contact": {
      "landline": "+1-253-205-2802",
      "mobile": "+1-456-686-4180",
      "email": "info@orozco.com",
      "whatsapp": "+1-334-811-3341"
    },
    "social_media": {
      "facebook": "https://facebook.com/petersbrandi",
      "instagram": "@qroberts",
      "other_urls": []
    }
  },
  "opening_hours": "Mon-Fri: 7:00-18:00",
  "description": "Commercial machining facility with precision equipment",
  "date_founded": "1991-06-22",
  "access_type": "Restricted",
  "wheelchair_accessibility": "Fully accessible",
  "equipment": [
    {
      "equipment_type": "https://en.wikipedia.org/wiki/CNC_mill",
      "manufacturing_process": "https://en.wikipedia.org/wiki/Machining",
      "make": "DMG Mori",
      "model": "VF-2",
      "serial_number": "SN705658",
      "condition": "Good",
      "notes": "Equipment notes: Back present nice billion.",
      "quantity": 5,
      "throughput": "100 parts/hour",
      "power_rating": 2911,
      "maintenance_schedule": "Every 6 months",
      "usage_levels": "Medium",
      "tolerance_class": "ISO 2768-m",
      "computer_controlled": true,
      "extraction_system": true,
      "materials_worked": [
        {
          "material_type": "https://en.wikipedia.org/wiki/Aluminum",
          "manufacturer": "Premium",
          "brand": "Industrial",
          "supplier_location": {
            "address": {
              "number": "8982",
              "street": "Scott Pike",
              "city": "Michaelstad",
              "region": "Indiana",
              "country": "Indonesia",
              "postcode": "36839"
            },
            "gps_coordinates": "37.182984, 12.8081",
            "directions": "Located behind Miller-Wright",
            "city": "Michaelstad",
            "country": "Indonesia"
          }
        },
        {
          "material_type": "https://en.wikipedia.org/wiki/Steel",
          "manufacturer": "Generic",
          "brand": "Industrial",
          "supplier_location": {
            "address": {
              "number": "1799",
              "street": "Erin Parkway",
              "city": "Mitchellview",
              "region": "Kentucky",
              "country": "New Zealand",
              "postcode": "30396"
            },
            "gps_coordinates": "41.90164, 34.122355",
            "directions": "Located near Foster, Carter and Townsend",
            "city": "Mitchellview",
            "country": "New Zealand"
          }
        },
        {
          "material_type": "https://en.wikipedia.org/wiki/Plastic",
          "manufacturer": "Premium",
          "brand": "Standard",
          "supplier_location": {
            "address": {
              "number": "5658",
              "street": "Kelly Point",
              "city": "Stuartburgh",
              "region": "Vermont",
              "country": "Uruguay",
              "postcode": "27179"
            },
            "gps_coordinates": "65.854839, -95.383349",
            "directions": "Located across from Navarro LLC",
            "city": "Stuartburgh",
            "country": "Uruguay"
          }
        },
        {
          "material_type": "https://en.wikipedia.org/wiki/Wood",
          "manufacturer": "Premium",
          "brand": "Professional",
          "supplier_location": {
            "address": {
              "number": "4766",
              "street": "Arnold Drive",
              "city": "Royberg",
              "region": "Kansas",
              "country": "Congo",
              "postcode": "95283"
            },
            "gps_coordinates": "69.71014, -102.501449",
            "directions": "Located near Collins PLC",
            "city": "Royberg",
            "country": "Congo"
          }
        }
      ],
      "axes": 3,
      "working_surface": 600,
      "detailed_capabilities": {
        "tolerance": "±0.01mm",
        "surface_finish": "Ra 0.8-3.2μm",
        "spindle_speed": "1000-12000 RPM",
        "feed_rate": "100-2000 mm/min",
        "tool_changer": "Automatic",
        "tolerance_range": "±0.01mm",
        "supported_materials": [
          "Plastic",
          "Steel"
        ],
        "process_parameters": {
          "setup_time": "61 minutes",
          "cycle_time": "58 minutes",
          "changeover_time": "20 minutes"
        }
      }
    },
    {
      "equipment_type": "https://en.wikipedia.org/wiki/CNC_lathe",
      "manufacturing_process": "https://en.wikipedia.org/wiki/CNC_lathe",
      "make": "Generic",
      "model": "Model 320",
      "condition": "Good",
      "computer_controlled": true
    },
    {
      "equipment_type": "https://en.wikipedia.org/wiki/Surface_grinder",
      "manufacturing_process": "https://en.wikipedia.org/wiki/Surface_grinder",
      "make": "Generic",
      "model": "Model 762",
      "condition": "Fair"
    }
  ],
  "manufacturing_processes": [
    "https://en.wikipedia.org/wiki/CNC_mill",
    "https://en.wikipedia.org/wiki/CNC_lathe",
    "https://en.wikipedia.org/wiki/Surface_grinder"
  ],
  "typical_batch_size": "50 -- 500 units",
  "floor_size": 4492,
  "storage_capacity": "555 cubic meters",
  "typical_materials": [],
  "certifications": [
    "ISO 9001",
    "AS9100"
  ],
  "road_access": true,
  "maintenance_schedule": "Every 4 months",
  "typical_products": [
    "Reactive multi-state projection",
    "Triple-buffered executive functionalities",
    "Sharable 24hour hardware"
  ],
  "circular_economy": {
    "applies_principles": true,
    "description": "Circular economy practices: Amount somebody sign size traditional small cut.",
    "by_products": [
      "weight"
    ]
  },
  "human_capacity": {
    "headcount": 4
  },
  "innovation_space": {
    "staff": 3,
    "services": [
      "Multi-lateral high-level circuit",
      "Diverse national solution",
      "Streamlined full-range matrix"
    ],
    "footfall": 4,
    "residencies": true
  },
  "record_data": {
    "date_created": "2025-11-29T22:08:23.163251",
    "created_by": {
      "name": "Hampton-Moore",
      "location": {
        "address": {
          "number": "2013",
          "street": "Shaw Manor",
          "city": "West Gregorytown",
          "region": "Kansas",
          "country": "New Zealand",
          "postcode": "39796"
        },
        "gps_coordinates": "32.911768, -41.455797",
        "directions": "Located across from Brown-Jackson",
        "city": "West Gregorytown",
        "country": "New Zealand"
      },
      "contact_person": "Christian Cordova",
      "bio": "Established in 2000, we specialize in Persevering 24hour orchestration",
      "website": "https://mendez.com",
      "languages": [
        "de"
      ],
      "mailing_list": "sarahsmith@lists.huynh.com",
      "images": [
        "images/for.jpg"
      ],
      "contact": {
        "landline": "+1-357-813-5893",
        "mobile": "+1-580-753-1656",
        "email": "info@mcintosh.org",
        "whatsapp": "+1-509-747-5231"
      },
      "social_media": {
        "other_urls": [
          "https://lee-dennis.org",
          "https://gomez.com"
        ]
      }
    },
    "data_collection_method": "Survey"
  }
}