{
  "id": "772bd776-4db8-4765-8ece-63582826d2c5",
  "name": "Professional Machine Shop",
  "location": {
    "address": {
      "number": "3880",
      "street": "Michael Inlet",
      "city": "West Meghan",
      "region": "California",
      "country": "Saint Vincent and the Grenadines",
      "postcode": "37846"
    },
    "gps_coordinates": "57.579414, -33.246146",
    "directions": "Located near Miller PLC",
    "city": "West Meghan",
    "country": "Saint Vincent and the Grenadines"
  },
  "facility_status": "Planned",
  "owner": {
    "name": "Smith and Sons",
    "location": {
      "address": {
        "number": "3145",
        "street": "Larsen Ways",
        "city": "Beardfort",
        "region": "South Carolina",
        "country": "Cuba",
        "postcode": "59664"
      },
      "gps_coordinates": "41.911953, -27.998384",
      "directions": "Located behind Rodriguez, Welch and Schmidt",
      "city": "Beardfort",
      "country": "Cuba"
    },
    "contact_person": "Anthony Jimenez",
    "bio": "Established in 2014, we specialize in Grass-roots incremental toolset",
    "website": "https://russell-gallegos.com",
    "languages": [
      "en",
      "de"
    ],
    "mailing_list": "allison02@lists.barrett.info",
    "images": [
      "images/early.jpg",
      "images/trial.jpg"
    ],
    "contact": {
      "landline": "+1-510-709-2421",
      "mobile": "+1-594-566-1047",
      "email": "info@james.biz",
      "whatsapp": "+1-670-911-3212"
    },
    "social_media": {
      "facebook": "https://facebook.com/anthonywinters",
      "twitter": "@vbrown",
      "other_urls": [
        "https://trevino.org"
      ]
    }
  },
  "contact": {
    "name": "Fisher, Bray and Anderson",
    "location": {
      "address": {
        "number": "5573",
        "street": "Amanda Fork",
        "city": "Port Anthonystad",
        "region": "Texas",
        "country": "Kuwait",
        "postcode": "24082"
      },
      "gps_coordinates": "56.063611, -111.200958",
      "directions": "Located across from Hebert LLC",
      "city": "Port Anthonystad",
      "country": "Kuwait"
    },
    "contact_person": "John Hanson",
    "bio": "Established in 1995, we specialize in Extended heuristic help-desk",
    "website": "https://moore.com",
    "languages": [
      "fr",
      "de",
      "es"
    ],
    "mailing_list": "amberbell@lists.hall-brown.biz",
    "images": [
      "images/author.jpg",
      "images/north.jpg"
    ],
    "contact": {
      "landline": "+1-864-479-8915",
      "mobile": "+1-868-359-7846",
      "email": "info@myers.com",
      "whatsapp": "+1-371-524-3708"
    },
    "social_media": {
      "other_urls": [
        "https://allen-hernandez.com",
        "https://farmer-sanchez.com"
      ]
    }
  },
  "opening_hours": "Mon-Fri: 8:00-20:00",
  "description": "Commercial machining facility with precision equipment",
  "date_founded": "1990-09-21",
  "access_type": "Restricted",
  "wheelchair_accessibility": "Partially accessible",
  "equipment": [
    {
      "equipment_type": "https://en.wikipedia.org/wiki/CNC_mill",
      "manufacturing_process": "https://en.wikipedia.org/wiki/Machining",
      "make": "Tormach",
      "model": "DMU 50",
      "serial_number": "SN302939",
      "condition": "Good",
      "notes": "Equipment notes: Player open back member store piece.",
      "quantity": 3,
      "throughput": "16 parts/hour",
      "power_rating": 9478,
      "maintenance_schedule": "Every 7 months",
      "usage_levels": "High",
      "tolerance_class": "ISO 2768-f",
      "uninterrupted_power_supply": true,
      "computer_controlled": true,
      "extraction_system": true,
      "materials_worked": [
        {
          "material_type": "https://en.wikipedia.org/wiki/Aluminum",
          "manufacturer": "Brand A",
          "brand": "Standard",
          "supplier_location": {
            "address": {
              "number": "7262",
              "street": "Rose Loaf",
              "city": "North Samuel",
              "region": "Alaska",
              "country": "Ethiopia",
              "postcode": "68299"
            },
            "gps_coordinates": "31.338166, -50.896836",
            "directions": "Located near Bailey Inc",
            "city": "North Samuel",
            "country": "Ethiopia"
          }
        },
        {
          "material_type": "https://en.wikipedia.org/wiki/Steel",
          "manufacturer": "Brand A",
          "brand": "Industrial",
          "supplier_location": {
            "address": {
              "number": "5305",
              "street": "Jonathan Pines",
              "city": "South Marissa",
              "region": "New York",
              "country": "Burundi",
              "postcode": "03688"
            },
            "gps_coordinates": "25.628855, -59.879594",
            "directions": "Located behind Brown, Freeman and Mcdaniel",
            "city": "South Marissa",
            "country": "Burundi"
          }
        },
        {
          "material_type": "https://en.wikipedia.org/wiki/Plastic",
          "manufacturer": "Brand B",
          "brand": "Professional",
          "supplier_location": {
            "address": {
              "number": "946",
              "street": "Lindsey Mount",
              "city": "Port Michaelton",
              "region": "Iowa",
              "country": "Estonia",
              "postcode": "03898"
            },
            "gps_coordinates": "69.519264, -32.890733",
            "directions": "Located behind Rios PLC",
            "city": "Port Michaelton",
            "country": "Estonia"
          }
        },
        {
          "material_type": "https://en.wikipedia.org/wiki/Wood",
          "manufacturer": "Brand B",
          "brand": "Professional",
          "supplier_location": {
            "address": {
              "number": "6673",
              "street": "Holt Spurs",
              "city": "New Oscar",
              "region": "Louisiana",
              "country": "Timor-Leste",
              "postcode": "71522"
            },
            "gps_coordinates": "41.16258, -11.761453",
            "directions": "Located near Huffman-Fisher",
            "city": "New Oscar",
            "country": "Timor-Leste"
          }
        }
      ],
      "axes": 5,
      "working_surface": 400,
      "detailed_capabilities": {
        "tolerance": "±0.01mm",
        "surface_finish": "Ra 0.8-3.2μm",
        "spindle_speed": "1000-12000 RPM",
        "feed_rate": "100-2000 mm/min",
        "tool_changer": "Automatic",
        "tolerance_range": "±0.020mm",
        "supported_materials": [
          "Steel",
          "Aluminum"
        ],
        "process_parameters": {
          "setup_time": "91 minutes",
          "cycle_time": "15 minutes",
          "changeover_time": "17 minutes"
        }
      }
    },
    {
      "equipment_type": "https://en.wikipedia.org/wiki/CNC_lathe",
      "manufacturing_process": "https://en.wikipedia.org/wiki/CNC_lathe",
      "make": "Brand A",
      "model": "Model 192",
      "condition": "Excellent",
      "computer_controlled": true
    },
    {
      "equipment_type": "https://en.wikipedia.org/wiki/Surface_grinder",
      "manufacturing_process": "https://en.wikipedia.org/wiki/Surface_grinder",
      "make": "Brand B",
      "model": "Model 291",
      "condition": "Fair"
    }
  ],
  "manufacturing_processes": [
    "https://en.wikipedia.org/wiki/CNC_mill",
    "https://en.wikipedia.org/wiki/CNC_lathe",
    "https://en.wikipedia.org/wiki/Surface_grinder"
  ],
  "typical_batch_size": "50 -- 500 units",
  "floor_size": 4820,
  "storage_capacity": "615 cubic meters",
  "typical_materials": [],
  "certifications": [
    "ISO 9001",
    "AS9100"
  ],
  "backup_generator": true,
  "uninterrupted_power_supply": true,
  "maintenance_schedule": "Every 1 months",
  "typical_products": [
    "Operative system-worthy Internet solution",
    "Ergonomic client-driven projection",
    "Cross-group secondary productivity",
    "Seamless multi-state customer loyalty"
  ],
  "circular_economy": {
    "applies_principles": true,
    "description": "Circular economy practices: Whole kid bring through.",
    "by_products": [
      "hot"
    ]
  },
  "human_capacity": {
    "headcount": 4
  },
  "innovation_space": {
    "staff": 6,
    "learning_resources": [
      "Implemented tangible parallelism",
      "Grass-roots real-time system engine",
      "Decentralized zero-defect hierarchy"
    ],
    "services": [
      "Reverse-engineered reciprocal knowledgebase",
      "Customer-focused client-server hierarchy"
    ],
    "footfall": 74,
    "residencies": true
  },
  "record_data": {
    "date_created": "2025-11-29T22:09:40.808626",
    "created_by": {
      "name": "Salas, Calderon and Petersen",
      "location": {
        "address": {
          "number": "8201",
          "street": "Fuller Mission",
          "city": "Briannastad",
          "region": "Iowa",
          "country": "Kyrgyz Republic",
          "postcode": "56715"
        },
        "gps_coordinates": "42.921228, -65.672735",
        "directions": "Located behind Summers-Lopez",
        "city": "Briannastad",
        "country": "Kyrgyz Republic"
      },
      "contact_person": "Jonathan Robinson",
      "bio": "Established in 1999, we specialize in Self-enabling disintermediate parallelism",
      "website": "https://mcbride.biz",
      "languages": [
        "fr",
        "es"
      ],
      "mailing_list": "caitlinfigueroa@lists.hendrix-diaz.com",
      "images": [
        "images/candidate.jpg"
      ],
      "contact": {
        "landline": "+1-460-726-1679",
        "mobile": "+1-415-826-3231",
        "email": "info@dixon.com",
        "whatsapp": "+1-494-816-1332"
      },
      "social_media": {
        "facebook": "https://facebook.com/kayleekeller",
        "other_urls": []
      }
    },
    "data_collection_method": "Interview"
  }
}