{
  "id": "d1bb9061-c107-44ba-b489-bb23a01106b1",
  "name": "Professional Machine Shop",
  "location": {
    "address": {
      "number": "8352",
      "street": "Daniel Mills",
      "city": "East Emily",
      "region": "Alabama",
      "country": "Togo",
      "postcode": "78829"
    },
    "gps_coordinates": "48.643295, -66.467462",
    "directions": "Located across from Henderson PLC",
    "city": "East Emily",
    "country": "Togo"
  },
  "facility_status": "Active",
  "owner": {
    "name": "Rogers-Dunlap",
    "location": {
      "address": {
        "number": "9022",
        "street": "Patricia Circle",
        "city": "Garciashire",
        "region": "Rhode Island",
        "country": "Kenya",
        "postcode": "15336"
      },
      "gps_coordinates": "48.246769, -114.824932",
      "directions": "Located near Lewis, Davis and Ramsey",
      "city": "Garciashire",
      "country": "Kenya"
    },
    "contact_person": "Sherry Chavez",
    "bio": "Established in 2016, we specialize in Realigned attitude-oriented open system",
    "website": "https://sullivan-lane.com",
    "languages": [
      "es",
      "en",
      "fr"
    ],
    "mailing_list": "epetersen@lists.mitchell-hendricks.biz",
    "images": [
      "images/center.jpg"
    ],
    "contact": {
      "landline": "+1-776-966-3427",
      "mobile": "+1-955-797-5168",
      "email": "info@wyatt.info",
      "whatsapp": "+1-883-397-2394"
    },
    "social_media": {
      "facebook": "https://facebook.com/loripennington",
      "twitter": "@canderson",
      "other_urls": [
        "https://deleon.com",
        "https://nolan.com"
      ]
    }
  },
  "contact": {
    "name": "Thomas Group",
    "location": {
      "address": {
        "number": "3751",
        "street": "Matthew Islands",
        "city": "Jonathanbury",
        "region": "Massachusetts",
        "country": "Syrian Arab Republic",
        "postcode": "25694"
      },
      "gps_coordinates": "60.998321, -80.625372",
      "directions": "Located behind Fernandez and Sons",
      "city": "Jonathanbury",
      "country": "Syrian Arab Republic"
    },
    "contact_person": "Lacey Boyd",
    "bio": "Established in 1991, we specialize in Total eco-centric installation",
    "website": "https://owens.com",
    "languages": [
      "es",
      "fr"
    ],
    "mailing_list": "gguerrero@lists.kent.com",
    "images": [
      "images/cut.jpg"
    ],
    "contact": {
      "landline": "+1-329-653-5230",
      "mobile": "+1-401-704-3197",
      "email": "info@stanton.net",
      "whatsapp": "+1-497-944-8601"
    },
    "social_media": {
      "facebook": "https://facebook.com/gwilliamson",
      "twitter": "@fuenteseric",
      "instagram": "@wilkinsoneric",
      "other_urls": [
        "https://perry.com"
      ]
    }
  },
  "opening_hours": "Mon-Fri: 7:00-20:00",
  "description": "Commercial machining facility with precision equipment",
  "date_founded": "2000-01-15",
  "access_type": "Restricted",
  "wheelchair_accessibility": "Not accessible",
  "equipment": [
    {
      "equipment_type": "https://en.wikipedia.org/wiki/CNC_mill",
      "manufacturing_process": "https://en.wikipedia.org/wiki/Machining",
      "make": "Tormach",
      "model": "VTC-20",
      "serial_number": "SN846031",
      "condition": "Good",
      "notes": "Equipment notes: Under bad actually professional.",
      "quantity": 3,
      "throughput": "15 parts/hour",
      "power_rating": 5897,
      "maintenance_schedule": "Every 8 months",
      "usage_levels": "High",
      "tolerance_class": "ISO 2768-c",
      "computer_controlled": true,
      "extraction_system": true,
      "materials_worked": [
        {
          "material_type": "https://en.wikipedia.org/wiki/Aluminum",
          "manufacturer": "Brand A",
          "brand": "Standard",
          "supplier_location": {
            "address": {
              "number": "4843",
              "street": "Gonzalez Rue",
              "city": "Emilyton",
              "region": "Missouri",
              "country": "Algeria",
              "postcode": "67970"
            },
            "gps_coordinates": "52.021531, -83.860114",
            "directions": "Located near Maldonado, Fuller and Olson",
            "city": "Emilyton",
            "country": "Algeria"
          }
        },
        {
          "material_type": "https://en.wikipedia.org/wiki/Steel",
          "manufacturer": "Brand A",
          "brand": "Industrial",
          "supplier_location": {
            "address": {
              "number": "5741",
              "street": "Torres Estates",
              "city": "Lake Jessica",
              "region": "Oregon",
              "country": "Panama",
              "postcode": "54227"
            },
            "gps_coordinates": "57.332901, -120.398643",
            "directions": "Located behind Thomas LLC",
            "city": "Lake Jessica",
            "country": "Panama"
          }
        },
        {
          "material_type": "https://en.wikipedia.org/wiki/Plastic",
          "manufacturer": "Brand B",
          "brand": "Standard",
          "supplier_location": {
            "address": {
              "number": "2159",
              "street": "Fields Streets",
              "city": "North Brent",
              "region": "Tennessee",
              "country": "Seychelles",
              "postcode": "13437"
            },
            "gps_coordinates": "31.122129, -12.93872",
            "directions": "Located behind James-Moon",
            "city": "North Brent",
            "country": "Seychelles"
          }
        },
        {
          "material_type": "https://en.wikipedia.org/wiki/Wood",
          "manufacturer": "Premium",
          "brand": "Standard",
          "supplier_location": {
            "address": {
              "number": "4356",
              "street": "Mueller Corners",
              "city": "Lake Allisonborough",
              "region": "North Carolina",
              "country": "Cuba",
              "postcode": "75764"
            },
            "gps_coordinates": "68.788639, -63.040794",
            "directions": "Located across from Barnett and Sons",
            "city": "Lake Allisonborough",
            "country": "Cuba"
          }
        }
      ],
      "axes": 3,
      "working_surface": 400,
      "detailed_capabilities": {
        "tolerance": "±0.01mm",
        "surface_finish": "Ra 0.8-3.2μm",
        "spindle_speed": "1000-12000 RPM",
        "feed_rate": "100-2000 mm/min",
        "tool_changer": "Automatic",
        "tolerance_range": "±0.015mm",
        "supported_materials": [
          "Steel",
          "Aluminum"
        ],
        "process_parameters": {
          "setup_time": "112 minutes",
          "cycle_time": "49 minutes",
          "changeover_time": "10 minutes"
        }
      }
    },
    {
      "equipment_type": "https://en.wikipedia.org/wiki/CNC_lathe",
      "manufacturing_process": "https://en.wikipedia.org/wiki/CNC_lathe",
      "make": "Brand B",
      "model": "Model 974",
      "condition": "Fair"
    },
    {
      "equipment_type": "https://en.wikipedia.org/wiki/Surface_grinder",
      "manufacturing_process": "https://en.wikipedia.org/wiki/Surface_grinder",
      "make": "Generic",
      "model": "Model 731",
      "condition": "Good"
    }
  ],
  "manufacturing_processes": [
    "https://en.wikipedia.org/wiki/CNC_mill",
    "https://en.wikipedia.org/wiki/CNC_lathe",
    "https://en.wikipedia.org/wiki/Surface_grinder"
  ],
  "typical_batch_size": "50 -- 500 units",
  "floor_size": 3890,
  "storage_capacity": "717 cubic meters",
  "typical_materials": [],
  "certifications": [
    "ISO 9001",
    "AS9100"
  ],
  "backup_generator": true,
  "loading_dock": true,
  "maintenance_schedule": "Every 2 months",
  "typical_products": [
    "Polarized homogeneous strategy",
    "Reverse-engineered fresh-thinking benchmark",
    "Re-contextualized optimizing superstructure",
    "Optimized fresh-thinking info-mediaries",
    "Optional upward-trending utilization"
  ],
  "human_capacity": {
    "headcount": 28
  },
  "innovation_space": {
    "staff": 4,
    "learning_resources": [
      "Inverse well-modulated throughput",
      "Face-to-face grid-enabled strategy",
      "Profit-focused systematic projection",
      "Compatible optimizing service-desk"
    ],
    "services": [
      "Synergistic coherent Internet solution",
      "Re-contextualized scalable focus group",
      "Re-contextualized radical collaboration",
      "Robust regional standardization"
    ],
    "footfall": 20
  },
  "record_data": {
    "date_created": "2025-11-29T22:09:40.802346",
    "created_by": {
      "name": "Gonzales, Brown and Taylor",
      "location": {
        "address": {
          "number": "2951",
          "street": "Jose Tunnel",
          "city": "Knightfort",
          "region": "West Virginia",
          "country": "Senegal",
          "postcode": "07326"
        },
        "gps_coordinates": "33.587394, -34.654805",
        "directions": "Located across from Baxter, Cobb and Torres",
        "city": "Knightfort",
        "country": "Senegal"
      },
      "contact_person": "Shelby Barr DDS",
      "bio": "Established in 1991, we specialize in Enterprise-wide logistical migration",
      "website": "https://martinez.org",
      "languages": [
        "en",
        "fr"
      ],
      "mailing_list": "xrice@lists.brown-horton.com",
      "contact": {
        "landline": "+1-723-903-6023",
        "mobile": "+1-859-218-1053",
        "email": "info@bowers-cunningham.com",
        "whatsapp": "+1-291-323-2029"
      },
      "social_media": {
        "facebook": "https://facebook.com/millerkimberly",
        "twitter": "@jeffreysmith",
        "instagram": "@kyle76",
        "other_urls": [
          "https://martin.com",
          "https://conway.com"
        ]
      }
    },
    "data_collection_method": "Website"
  }
}