{
  "id": "9377a476-de40-4e4f-9b08-08dd73a5af09",
  "name": "Rapid Prototyping Lab",
  "location": {
    "address": {
      "number": "2146",
      "street": "Graham Cliff",
      "city": "Jamesmouth",
      "region": "Vermont",
      "country": "Tuvalu",
      "postcode": "08513"
    },
    "gps_coordinates": "62.796375, -72.488422",
    "directions": "Located near Johnson, Peters and Davis",
    "city": "Jamesmouth",
    "country": "Tuvalu"
  },
  "facility_status": "Active",
  "owner": {
    "name": "Sanchez-Harper",
    "location": {
      "address": {
        "number": "3500",
        "street": "Antonio Parkway",
        "city": "Williamsport",
        "region": "Tennessee",
        "country": "Tonga",
        "postcode": "55732"
      },
      "gps_coordinates": "43.512695, -35.467575",
      "directions": "Located behind Simon-Beck",
      "city": "Williamsport",
      "country": "Tonga"
    },
    "contact_person": "Jonathan Stein MD",
    "bio": "Established in 2010, we specialize in Reverse-engineered grid-enabled concept",
    "website": "https://jackson.com",
    "languages": [
      "en",
      "de",
      "fr"
    ],
    "mailing_list": "jstrong@lists.green-smith.org",
    "images": [
      "images/what.jpg",
      "images/right.jpg"
    ],
    "contact": {
      "landline": "+1-737-604-6806",
      "mobile": "+1-866-295-5557",
      "email": "info@johnson.info",
      "whatsapp": "+1-943-714-4937"
    },
    "social_media": {
      "facebook": "https://facebook.com/timothylarsen",
      "twitter": "@travis30",
      "other_urls": [
        "https://bauer.info",
        "https://morris-orr.info"
      ]
    }
  },
  "contact": {
    "name": "Moore PLC",
    "location": {
      "address": {
        "number": "9128",
        "street": "Martin Key",
        "city": "Leefort",
        "region": "Pennsylvania",
        "country": "Lebanon",
        "postcode": "02586"
      },
      "gps_coordinates": "32.304921, -103.547936",
      "directions": "Located near Moore Group",
      "city": "Leefort",
      "country": "Lebanon"
    },
    "contact_person": "Christopher Smith",
    "bio": "Established in 1996, we specialize in Programmable 24hour time-frame",
    "website": "https://zamora.com",
    "languages": [
      "en",
      "de"
    ],
    "mailing_list": "ashley01@lists.lee.org",
    "contact": {
      "landline": "+1-737-494-4300",
      "mobile": "+1-712-474-2026",
      "email": "info@scott.org",
      "whatsapp": "+1-859-444-8028"
    },
    "social_media": {
      "facebook": "https://facebook.com/aaron06",
      "other_urls": [
        "https://miller.info",
        "https://rivera-buck.com"
      ]
    }
  },
  "opening_hours": "Mon-Fri: 6:00-18:00",
  "description": "University research facility for rapid prototyping",
  "date_founded": "2018-02-24",
  "access_type": "Restricted with public hours",
  "wheelchair_accessibility": "Partially accessible",
  "equipment": [
    {
      "equipment_type": "https://en.wikipedia.org/wiki/3D_printer",
      "manufacturing_process": "https://en.wikipedia.org/wiki/Fused_filament_fabrication",
      "make": "Prusa",
      "model": "Form 3",
      "serial_number": "SN392651",
      "condition": "Good",
      "notes": "Equipment notes: Care southern wish.",
      "quantity": 1,
      "throughput": "34 parts/hour",
      "power_rating": 9950,
      "maintenance_schedule": "Every 6 months",
      "usage_levels": "High",
      "tolerance_class": "ISO 2768-c",
      "uninterrupted_power_supply": true,
      "computer_controlled": true,
      "materials_worked": [
        {
          "material_type": "https://en.wikipedia.org/wiki/PLA",
          "manufacturer": "Brand B",
          "brand": "Professional",
          "supplier_location": {
            "address": {
              "number": "986",
              "street": "Luna Ville",
              "city": "Jamesstad",
              "region": "Arizona",
              "country": "Reunion",
              "postcode": "02599"
            },
            "gps_coordinates": "66.978239, -90.012893",
            "directions": "Located across from Hall PLC",
            "city": "Jamesstad",
            "country": "Reunion"
          }
        },
        {
          "material_type": "https://en.wikipedia.org/wiki/PETG",
          "manufacturer": "Brand A",
          "brand": "Standard",
          "supplier_location": {
            "address": {
              "number": "2856",
              "street": "Robert Cove",
              "city": "West Teresashire",
              "region": "Hawaii",
              "country": "Singapore",
              "postcode": "51700"
            },
            "gps_coordinates": "33.573224, -64.041055",
            "directions": "Located behind Smith and Sons",
            "city": "West Teresashire",
            "country": "Singapore"
          }
        },
        {
          "material_type": "https://en.wikipedia.org/wiki/ABS",
          "manufacturer": "Premium",
          "brand": "Industrial",
          "supplier_location": {
            "address": {
              "number": "9776",
              "street": "Roberts Trail",
              "city": "Charlesborough",
              "region": "West Virginia",
              "country": "French Guiana",
              "postcode": "39530"
            },
            "gps_coordinates": "52.198376, -72.715939",
            "directions": "Located behind Jackson, Barnett and Phillips",
            "city": "Charlesborough",
            "country": "French Guiana"
          }
        },
        {
          "material_type": "https://en.wikipedia.org/wiki/TPU",
          "manufacturer": "Premium",
          "brand": "Professional",
          "supplier_location": {
            "address": {
              "number": "131",
              "street": "Gray Inlet",
              "city": "North Robertmouth",
              "region": "Montana",
              "country": "Korea",
              "postcode": "93245"
            },
            "gps_coordinates": "28.870828, -100.441723",
            "directions": "Located behind Green Group",
            "city": "North Robertmouth",
            "country": "Korea"
          }
        }
      ],
      "build_volume": 8000000,
      "nozzle_size": 0.8,
      "detailed_capabilities": {
        "layer_height_range": "0.1-0.3mm",
        "print_speed": "20-100mm/s",
        "temperature_range": "200-280°C",
        "bed_temperature": "60-100°C",
        "supported_formats": [
          "STL",
          "OBJ",
          "3MF"
        ],
        "supported_materials": [
          "TPU",
          "PETG",
          "PLA"
        ],
        "process_parameters": {
          "setup_time": "84 minutes",
          "cycle_time": "21 minutes",
          "changeover_time": "29 minutes"
        }
      }
    },
    {
      "equipment_type": "https://en.wikipedia.org/wiki/SLA_printer",
      "manufacturing_process": "https://en.wikipedia.org/wiki/SLA_printer",
      "make": "Brand A",
      "model": "Model 613",
      "condition": "Good"
    },
    {
      "equipment_type": "https://en.wikipedia.org/wiki/CNC_mill",
      "manufacturing_process": "https://en.wikipedia.org/wiki/Machining",
      "make": "Mazak",
      "model": "VTC-20",
      "serial_number": "SN388443",
      "condition": "Fair",
      "notes": "Equipment notes: Guy car discover.",
      "quantity": 1,
      "throughput": "11 parts/hour",
      "power_rating": 3368,
      "maintenance_schedule": "Every 5 months",
      "usage_levels": "Medium",
      "tolerance_class": "ISO 2768-f",
      "uninterrupted_power_supply": true,
      "computer_controlled": true,
      "extraction_system": true,
      "materials_worked": [
        {
          "material_type": "https://en.wikipedia.org/wiki/Aluminum",
          "manufacturer": "Brand B",
          "brand": "Professional",
          "supplier_location": {
            "address": {
              "number": "786",
              "street": "Sara Trail",
              "city": "Alexandermouth",
              "region": "Oklahoma",
              "country": "Kiribati",
              "postcode": "15815"
            },
            "gps_coordinates": "60.212477, 35.163862",
            "directions": "Located near Hernandez, Phillips and Martin",
            "city": "Alexandermouth",
            "country": "Kiribati"
          }
        },
        {
          "material_type": "https://en.wikipedia.org/wiki/Steel",
          "manufacturer": "Brand B",
          "brand": "Professional",
          "supplier_location": {
            "address": {
              "number": "1781",
              "street": "Edwards Drive",
              "city": "East Rebeccahaven",
              "region": "Michigan",
              "country": "Grenada",
              "postcode": "83092"
            },
            "gps_coordinates": "41.529297, -54.182694",
            "directions": "Located near Conner Ltd",
            "city": "East Rebeccahaven",
            "country": "Grenada"
          }
        },
        {
          "material_type": "https://en.wikipedia.org/wiki/Plastic",
          "manufacturer": "Premium",
          "brand": "Standard",
          "supplier_location": {
            "address": {
              "number": "6196",
              "street": "Holly Highway",
              "city": "Douglasshire",
              "region": "Wisconsin",
              "country": "Azerbaijan",
              "postcode": "29005"
            },
            "gps_coordinates": "30.756929, -56.098808",
            "directions": "Located across from White, French and Gonzalez",
            "city": "Douglasshire",
            "country": "Azerbaijan"
          }
        },
        {
          "material_type": "https://en.wikipedia.org/wiki/Wood",
          "manufacturer": "Brand B",
          "brand": "Professional",
          "supplier_location": {
            "address": {
              "number": "2664",
              "street": "Parks Glens",
              "city": "Port Jacob",
              "region": "Nebraska",
              "country": "Namibia",
              "postcode": "08684"
            },
            "gps_coordinates": "46.092065, -77.181139",
            "directions": "Located near Nelson, Copeland and Ferguson",
            "city": "Port Jacob",
            "country": "Namibia"
          }
        }
      ],
      "axes": 3,
      "working_surface": 600,
      "detailed_capabilities": {
        "tolerance": "±0.01mm",
        "surface_finish": "Ra 0.8-3.2μm",
        "spindle_speed": "1000-12000 RPM",
        "feed_rate": "100-2000 mm/min",
        "tool_changer": "Automatic",
        "tolerance_range": "±0.020mm",
        "supported_materials": [
          "Plastic",
          "Aluminum"
        ],
        "process_parameters": {
          "setup_time": "89 minutes",
          "cycle_time": "17 minutes",
          "changeover_time": "39 minutes"
        }
      }
    }
  ],
  "manufacturing_processes": [
    "https://en.wikipedia.org/wiki/3D_printer",
    "https://en.wikipedia.org/wiki/SLA_printer",
    "https://en.wikipedia.org/wiki/CNC_mill"
  ],
  "typical_batch_size": "0 -- 50 units",
  "floor_size": 537,
  "storage_capacity": "393 cubic meters",
  "typical_materials": [],
  "certifications": [
    "Research Grade"
  ],
  "road_access": true,
  "loading_dock": true,
  "maintenance_schedule": "Every 3 months",
  "typical_products": [
    "Quality-focused bifurcated circuit",
    "Balanced attitude-oriented pricing structure",
    "Managed zero-defect toolset",
    "Persevering contextually-based portal",
    "Vision-oriented multimedia project"
  ],
  "human_capacity": {
    "headcount": 37
  },
  "innovation_space": {
    "staff": 1,
    "learning_resources": [
      "Innovative fault-tolerant adapter",
      "Innovative actuating open system"
    ],
    "services": [
      "Multi-tiered stable system engine",
      "Stand-alone multi-tasking Local Area Network"
    ],
    "footfall": 86,
    "residencies": true
  },
  "record_data": {
    "date_created": "2025-11-29T22:09:40.816228",
    "created_by": {
      "name": "Matthews LLC",
      "location": {
        "address": {
          "number": "4351",
          "street": "Amanda Harbors",
          "city": "North Davidborough",
          "region": "Wyoming",
          "country": "Burundi",
          "postcode": "01753"
        },
        "gps_coordinates": "32.051556, -15.973655",
        "directions": "Located near Hamilton, Kennedy and Bryant",
        "city": "North Davidborough",
        "country": "Burundi"
      },
      "contact_person": "Kristen Ramirez",
      "bio": "Established in 2014, we specialize in Organized incremental artificial intelligence",
      "website": "https://smith.com",
      "languages": [
        "de"
      ],
      "mailing_list": "katherinelopez@lists.mcdonald-moore.info",
      "contact": {
        "landline": "+1-967-746-2613",
        "mobile": "+1-689-876-5719",
        "email": "info@hamilton.info",
        "whatsapp": "+1-873-872-7331"
      },
      "social_media": {
        "instagram": "@ohicks",
        "other_urls": []
      }
    },
    "data_collection_method": "Interview"
  }
}