{
  "id": "ae2fcf82-e23b-446b-992f-143f48c4a0e9",
  "name": "Rapid Prototyping Lab",
  "location": {
    "address": {
      "number": "3942",
      "street": "Hopkins Burg",
      "city": "New Johnport",
      "region": "Vermont",
      "country": "Bosnia and Herzegovina",
      "postcode": "23034"
    },
    "gps_coordinates": "68.076953, -37.998886",
    "directions": "Located near Barnes-Miller",
    "city": "New Johnport",
    "country": "Bosnia and Herzegovina"
  },
  "facility_status": "Planned",
  "owner": {
    "name": "Gomez, Rodriguez and Lopez",
    "location": {
      "address": {
        "number": "3814",
        "street": "Harris Square",
        "city": "West Danielview",
        "region": "Maryland",
        "country": "Colombia",
        "postcode": "15635"
      },
      "gps_coordinates": "27.329236, 1.61346",
      "directions": "Located near Ingram and Sons",
      "city": "West Danielview",
      "country": "Colombia"
    },
    "contact_person": "Samantha Brooks",
    "bio": "Established in 2020, we specialize in Future-proofed systematic emulation",
    "website": "https://brewer-bailey.com",
    "languages": [
      "es",
      "fr",
      "de"
    ],
    "mailing_list": "jason48@lists.torres.net",
    "images": [
      "images/leave.jpg",
      "images/watch.jpg"
    ],
    "contact": {
      "landline": "+1-211-540-7985",
      "mobile": "+1-967-220-5331",
      "email": "info@holt.biz",
      "whatsapp": "+1-558-793-7721"
    },
    "social_media": {
      "facebook": "https://facebook.com/rothdominique",
      "twitter": "@suarezdiane",
      "instagram": "@susan78",
      "other_urls": [
        "https://bray.net",
        "https://orozco.com"
      ]
    }
  },
  "contact": {
    "name": "Daniels, Foster and Edwards",
    "location": {
      "address": {
        "number": "7903",
        "street": "Lisa Knolls",
        "city": "Gonzalezborough",
        "region": "Utah",
        "country": "New Zealand",
        "postcode": "54041"
      },
      "gps_coordinates": "45.870788, 34.509067",
      "directions": "Located near Bates-Mann",
      "city": "Gonzalezborough",
      "country": "New Zealand"
    },
    "contact_person": "James Hall",
    "bio": "Established in 2007, we specialize in Robust attitude-oriented circuit",
    "website": "https://quinn-bailey.com",
    "languages": [
      "de",
      "es"
    ],
    "mailing_list": "tkeller@lists.jones-harris.com",
    "images": [
      "images/they.jpg",
      "images/training.jpg",
      "images/pay.jpg"
    ],
    "contact": {
      "landline": "+1-565-634-7421",
      "mobile": "+1-718-796-1956",
      "email": "info@wells.biz",
      "whatsapp": "+1-368-482-1360"
    },
    "social_media": {
      "instagram": "@mhoward",
      "other_urls": [
        "https://morgan.com",
        "https://riggs.com"
      ]
    }
  },
  "opening_hours": "Mon-Fri: 6:00-17:00",
  "description": "University research facility for rapid prototyping",
  "date_founded": "1993-11-03",
  "access_type": "Restricted with public hours",
  "wheelchair_accessibility": "Partially accessible",
  "equipment": [
    {
      "equipment_type": "https://en.wikipedia.org/wiki/3D_printer",
      "manufacturing_process": "https://en.wikipedia.org/wiki/Fused_filament_fabrication",
      "make": "Creality",
      "model": "Ender 3",
      "serial_number": "SN255862",
      "condition": "Needs Maintenance",
      "notes": "Equipment notes: Government happen company poor.",
      "quantity": 4,
      "throughput": "84 parts/hour",
      "power_rating": 3831,
      "maintenance_schedule": "Every 11 months",
      "usage_levels": "Medium",
      "tolerance_class": "ISO 2768-f",
      "uninterrupted_power_supply": true,
      "computer_controlled": true,
      "materials_worked": [
        {
          "material_type": "https://en.wikipedia.org/wiki/PLA",
          "manufacturer": "Brand B",
          "brand": "Industrial",
          "supplier_location": {
            "address": {
              "number": "351",
              "street": "Austin Tunnel",
              "city": "South Collin",
              "region": "New Hampshire",
              "country": "Congo",
              "postcode": "87944"
            },
            "gps_coordinates": "47.04247, -2.775646",
            "directions": "Located across from Santiago-Martinez",
            "city": "South Collin",
            "country": "Congo"
          }
        },
        {
          "material_type": "https://en.wikipedia.org/wiki/PETG",
          "manufacturer": "Brand B",
          "brand": "Industrial",
          "supplier_location": {
            "address": {
              "number": "1375",
              "street": "Thomas Ridge",
              "city": "Jamesmouth",
              "region": "New York",
              "country": "Turkmenistan",
              "postcode": "66448"
            },
            "gps_coordinates": "32.015988, -25.305817",
            "directions": "Located across from Howard Group",
            "city": "Jamesmouth",
            "country": "Turkmenistan"
          }
        },
        {
          "material_type": "https://en.wikipedia.org/wiki/ABS",
          "manufacturer": "Brand A",
          "brand": "Standard",
          "supplier_location": {
            "address": {
              "number": "697",
              "street": "Smith Villages",
              "city": "Marvinville",
              "region": "Nebraska",
              "country": "Liechtenstein",
              "postcode": "76460"
            },
            "gps_coordinates": "60.364183, 26.140309",
            "directions": "Located near Craig-Reyes",
            "city": "Marvinville",
            "country": "Liechtenstein"
          }
        },
        {
          "material_type": "https://en.wikipedia.org/wiki/TPU",
          "manufacturer": "Brand A",
          "brand": "Industrial",
          "supplier_location": {
            "address": {
              "number": "2271",
              "street": "Elizabeth Divide",
              "city": "Ericaberg",
              "region": "North Dakota",
              "country": "Cook Islands",
              "postcode": "20503"
            },
            "gps_coordinates": "57.414812, -110.537155",
            "directions": "Located behind Sanchez Group",
            "city": "Ericaberg",
            "country": "Cook Islands"
          }
        }
      ],
      "build_volume": 27000000,
      "nozzle_size": 0.8,
      "detailed_capabilities": {
        "layer_height_range": "0.1-0.3mm",
        "print_speed": "20-100mm/s",
        "temperature_range": "200-280°C",
        "bed_temperature": "60-100°C",
        "supported_formats": [
          "STL",
          "OBJ",
          "3MF"
        ],
        "supported_materials": [
          "ABS",
          "PETG",
          "TPU",
          "PLA"
        ],
        "process_parameters": {
          "setup_time": "58 minutes",
          "cycle_time": "60 minutes",
          "changeover_time": "45 minutes"
        }
      }
    },
    {
      "equipment_type": "https://en.wikipedia.org/wiki/SLA_printer",
      "manufacturing_process": "https://en.wikipedia.org/wiki/SLA_printer",
      "make": "Generic",
      "model": "Model 898",
      "condition": "Fair",
      "computer_controlled": true
    },
    {
      "equipment_type": "https://en.wikipedia.org/wiki/CNC_mill",
      "manufacturing_process": "https://en.wikipedia.org/wiki/Machining",
      "make": "Mazak",
      "model": "PCNC 440",
      "serial_number": "SN926716",
      "condition": "Excellent",
      "notes": "Equipment notes: Any evidence prepare others become.",
      "quantity": 3,
      "throughput": "2 parts/hour",
      "power_rating": 4162,
      "maintenance_schedule": "Every 12 months",
      "usage_levels": "Medium",
      "tolerance_class": "ISO 2768-c",
      "uninterrupted_power_supply": true,
      "computer_controlled": true,
      "extraction_system": true,
      "materials_worked": [
        {
          "material_type": "https://en.wikipedia.org/wiki/Aluminum",
          "manufacturer": "Generic",
          "brand": "Industrial",
          "supplier_location": {
            "address": {
              "number": "6604",
              "street": "Joseph Villages",
              "city": "North Chelseabury",
              "region": "Iowa",
              "country": "Bhutan",
              "postcode": "45596"
            },
            "gps_coordinates": "68.206696, -70.60501",
            "directions": "Located near Thornton-Burgess",
            "city": "North Chelseabury",
            "country": "Bhutan"
          }
        },
        {
          "material_type": "https://en.wikipedia.org/wiki/Steel",
          "manufacturer": "Premium",
          "brand": "Professional",
          "supplier_location": {
            "address": {
              "number": "8261",
              "street": "Stephanie Drives",
              "city": "Saundersland",
              "region": "Alaska",
              "country": "Korea",
              "postcode": "53893"
            },
            "gps_coordinates": "44.544985, 21.968466",
            "directions": "Located behind Chen-Contreras",
            "city": "Saundersland",
            "country": "Korea"
          }
        },
        {
          "material_type": "https://en.wikipedia.org/wiki/Plastic",
          "manufacturer": "Brand B",
          "brand": "Standard",
          "supplier_location": {
            "address": {
              "number": "5948",
              "street": "Megan Drives",
              "city": "East Josephmouth",
              "region": "Maine",
              "country": "Panama",
              "postcode": "36458"
            },
            "gps_coordinates": "40.195063, 35.438438",
            "directions": "Located near Lopez PLC",
            "city": "East Josephmouth",
            "country": "Panama"
          }
        },
        {
          "material_type": "https://en.wikipedia.org/wiki/Wood",
          "manufacturer": "Brand A",
          "brand": "Industrial",
          "supplier_location": {
            "address": {
              "number": "7691",
              "street": "Joe Canyon",
              "city": "North Bruce",
              "region": "Louisiana",
              "country": "Reunion",
              "postcode": "57480"
            },
            "gps_coordinates": "50.212671, -113.132188",
            "directions": "Located near Clark, Wang and Morris",
            "city": "North Bruce",
            "country": "Reunion"
          }
        }
      ],
      "axes": 5,
      "working_surface": 800,
      "detailed_capabilities": {
        "tolerance": "±0.01mm",
        "surface_finish": "Ra 0.8-3.2μm",
        "spindle_speed": "1000-12000 RPM",
        "feed_rate": "100-2000 mm/min",
        "tool_changer": "Automatic",
        "tolerance_range": "±0.020mm",
        "supported_materials": [
          "Aluminum",
          "Wood",
          "Steel"
        ],
        "process_parameters": {
          "setup_time": "100 minutes",
          "cycle_time": "18 minutes",
          "changeover_time": "35 minutes"
        }
      }
    }
  ],
  "manufacturing_processes": [
    "https://en.wikipedia.org/wiki/3D_printer",
    "https://en.wikipedia.org/wiki/SLA_printer",
    "https://en.wikipedia.org/wiki/CNC_mill"
  ],
  "typical_batch_size": "0 -- 50 units",
  "floor_size": 3567,
  "storage_capacity": "873 cubic meters",
  "typical_materials": [],
  "certifications": [
    "Research Grade"
  ],
  "backup_generator": true,
  "road_access": true,
  "loading_dock": true,
  "maintenance_schedule": "Every 6 months",
  "typical_products": [
    "Enhanced grid-enabled methodology",
    "Sharable 24hour migration"
  ],
  "human_capacity": {
    "headcount": 23
  },
  "innovation_space": {
    "staff": 10,
    "learning_resources": [
      "Diverse multi-state open system",
      "Customizable composite firmware"
    ],
    "footfall": 51,
    "residencies": true
  },
  "record_data": {
    "date_created": "2025-11-29T22:08:23.119171",
    "created_by": {
      "name": "Novak, Alexander and Brooks",
      "location": {
        "address": {
          "number": "9608",
          "street": "David Bridge",
          "city": "Daughertychester",
          "region": "North Carolina",
          "country": "Kyrgyz Republic",
          "postcode": "21226"
        },
        "gps_coordinates": "44.176058, -28.930682",
        "directions": "Located across from Bailey, Wolf and Simmons",
        "city": "Daughertychester",
        "country": "Kyrgyz Republic"
      },
      "contact_person": "Jasmine Thomas",
      "bio": "Established in 2008, we specialize in Reverse-engineered client-driven archive",
      "website": "https://smith.biz",
      "languages": [
        "de",
        "en",
        "es"
      ],
      "mailing_list": "hubbardcrystal@lists.coleman-diaz.org",
      "images": [
        "images/somebody.jpg",
        "images/risk.jpg",
        "images/available.jpg"
      ],
      "contact": {
        "landline": "+1-332-812-3403",
        "mobile": "+1-313-480-2341",
        "email": "info@clark-hernandez.com",
        "whatsapp": "+1-401-585-3562"
      },
      "social_media": {
        "instagram": "@troy66",
        "other_urls": [
          "https://mcclure.com",
          "https://daniel-mcintosh.org"
        ]
      }
    },
    "data_collection_method": "Survey"
  }
}