{
  "id": "c2463127-b72a-412c-afed-eb0707ec614c",
  "name": "Rapid Prototyping Lab",
  "location": {
    "address": {
      "number": "1611",
      "street": "Scott Curve",
      "city": "New Sydneyburgh",
      "region": "Montana",
      "country": "Solomon Islands",
      "postcode": "86820"
    },
    "gps_coordinates": "52.728133, -109.833411",
    "directions": "Located across from Pena Inc",
    "city": "New Sydneyburgh",
    "country": "Solomon Islands"
  },
  "facility_status": "Active",
  "owner": {
    "name": "Miller LLC",
    "location": {
      "address": {
        "number": "1292",
        "street": "Tammy Brook",
        "city": "Holmestown",
        "region": "New Jersey",
        "country": "Romania",
        "postcode": "73956"
      },
      "gps_coordinates": "45.753239, -75.572603",
      "directions": "Located across from Atkins and Sons",
      "city": "Holmestown",
      "country": "Romania"
    },
    "contact_person": "Cory Fields",
    "bio": "Established in 2001, we specialize in Open-architected transitional moratorium",
    "website": "https://dodson.org",
    "languages": [
      "es",
      "fr",
      "en"
    ],
    "mailing_list": "howelladam@lists.white-herrera.com",
    "images": [
      "images/nothing.jpg",
      "images/despite.jpg"
    ],
    "contact": {
      "landline": "+1-311-298-5990",
      "mobile": "+1-590-863-1798",
      "email": "info@walker.biz",
      "whatsapp": "+1-372-410-3468"
    },
    "social_media": {
      "facebook": "https://facebook.com/trevor36",
      "twitter": "@hansenmelissa",
      "other_urls": [
        "https://dickerson.com"
      ]
    }
  },
  "contact": {
    "name": "Smith-Sanchez",
    "location": {
      "address": {
        "number": "8168",
        "street": "Harris Mount",
        "city": "East Johnnyfurt",
        "region": "Iowa",
        "country": "Swaziland",
        "postcode": "11417"
      },
      "gps_coordinates": "42.628208, -52.42243",
      "directions": "Located across from Flynn, Schroeder and Burns",
      "city": "East Johnnyfurt",
      "country": "Swaziland"
    },
    "contact_person": "Jessica Gilmore",
    "bio": "Established in 2018, we specialize in Fully-configurable stable definition",
    "website": "https://estrada.net",
    "languages": [
      "de"
    ],
    "mailing_list": "bobbydean@lists.grimes-martinez.net",
    "images": [
      "images/conference.jpg",
      "images/north.jpg"
    ],
    "contact": {
      "landline": "+1-511-976-8585",
      "mobile": "+1-367-873-8520",
      "email": "info@west.com",
      "whatsapp": "+1-243-512-6249"
    },
    "social_media": {
      "facebook": "https://facebook.com/stephenskatie",
      "twitter": "@micheal58",
      "instagram": "@brockroberto",
      "other_urls": []
    }
  },
  "opening_hours": "Mon-Fri: 7:00-17:00",
  "description": "University research facility for rapid prototyping",
  "date_founded": "2004-01-21",
  "access_type": "Restricted with public hours",
  "wheelchair_accessibility": "Partially accessible",
  "equipment": [
    {
      "equipment_type": "https://en.wikipedia.org/wiki/3D_printer",
      "manufacturing_process": "https://en.wikipedia.org/wiki/Fused_filament_fabrication",
      "make": "Prusa",
      "model": "i3 MK3S+",
      "serial_number": "SN170836",
      "condition": "Excellent",
      "notes": "Equipment notes: Medical rule little cause begin my.",
      "quantity": 3,
      "throughput": "44 parts/hour",
      "power_rating": 1971,
      "maintenance_schedule": "Every 6 months",
      "usage_levels": "Medium",
      "tolerance_class": "ISO 2768-m",
      "computer_controlled": true,
      "materials_worked": [
        {
          "material_type": "https://en.wikipedia.org/wiki/PLA",
          "manufacturer": "Brand B",
          "brand": "Standard",
          "supplier_location": {
            "address": {
              "number": "1794",
              "street": "Rodriguez Walks",
              "city": "Patrickland",
              "region": "Virginia",
              "country": "United States Virgin Islands",
              "postcode": "69282"
            },
            "gps_coordinates": "49.198923, -80.884639",
            "directions": "Located near Williams-Johnson",
            "city": "Patrickland",
            "country": "United States Virgin Islands"
          }
        },
        {
          "material_type": "https://en.wikipedia.org/wiki/PETG",
          "manufacturer": "Brand A",
          "brand": "Industrial",
          "supplier_location": {
            "address": {
              "number": "6489",
              "street": "Laura Camp",
              "city": "New Crystal",
              "region": "Arkansas",
              "country": "Jamaica",
              "postcode": "51687"
            },
            "gps_coordinates": "38.516818, -96.317443",
            "directions": "Located near Mccoy Inc",
            "city": "New Crystal",
            "country": "Jamaica"
          }
        },
        {
          "material_type": "https://en.wikipedia.org/wiki/ABS",
          "manufacturer": "Premium",
          "brand": "Industrial",
          "supplier_location": {
            "address": {
              "number": "7153",
              "street": "Richards Mountains",
              "city": "Samuelburgh",
              "region": "Connecticut",
              "country": "Sweden",
              "postcode": "86008"
            },
            "gps_coordinates": "56.300666, -106.040126",
            "directions": "Located behind Wilson-Smith",
            "city": "Samuelburgh",
            "country": "Sweden"
          }
        },
        {
          "material_type": "https://en.wikipedia.org/wiki/TPU",
          "manufacturer": "Brand A",
          "brand": "Standard",
          "supplier_location": {
            "address": {
              "number": "1986",
              "street": "Rojas Locks",
              "city": "Howardhaven",
              "region": "Massachusetts",
              "country": "Maldives",
              "postcode": "17355"
            },
            "gps_coordinates": "63.135215, -76.753776",
            "directions": "Located near Greene-Pratt",
            "city": "Howardhaven",
            "country": "Maldives"
          }
        }
      ],
      "build_volume": 64000000,
      "nozzle_size": 0.4,
      "detailed_capabilities": {
        "layer_height_range": "0.1-0.3mm",
        "print_speed": "20-100mm/s",
        "temperature_range": "200-280°C",
        "bed_temperature": "60-100°C",
        "supported_formats": [
          "STL",
          "OBJ",
          "3MF"
        ],
        "supported_materials": [
          "PLA",
          "TPU",
          "PETG"
        ],
        "process_parameters": {
          "setup_time": "39 minutes",
          "cycle_time": "34 minutes",
          "changeover_time": "14 minutes"
        }
      }
    },
    {
      "equipment_type": "https://en.wikipedia.org/wiki/SLA_printer",
      "manufacturing_process": "https://en.wikipedia.org/wiki/SLA_printer",
      "make": "Brand B",
      "model": "Model 751",
      "condition": "Good"
    },
    {
      "equipment_type": "https://en.wikipedia.org/wiki/CNC_mill",
      "manufacturing_process": "https://en.wikipedia.org/wiki/Machining",
      "make": "DMG Mori",
      "model": "VTC-20",
      "serial_number": "SN516712",
      "condition": "Fair",
      "notes": "Equipment notes: Lose safe administration.",
      "quantity": 3,
      "throughput": "69 parts/hour",
      "power_rating": 8304,
      "maintenance_schedule": "Every 11 months",
      "usage_levels": "Medium",
      "tolerance_class": "ISO 2768-c",
      "computer_controlled": true,
      "materials_worked": [
        {
          "material_type": "https://en.wikipedia.org/wiki/Aluminum",
          "manufacturer": "Brand A",
          "brand": "Industrial",
          "supplier_location": {
            "address": {
              "number": "3397",
              "street": "Angela Point",
              "city": "Serranoton",
              "region": "Hawaii",
              "country": "Nigeria",
              "postcode": "04235"
            },
            "gps_coordinates": "69.833487, 12.814636",
            "directions": "Located behind Garcia-Brooks",
            "city": "Serranoton",
            "country": "Nigeria"
          }
        },
        {
          "material_type": "https://en.wikipedia.org/wiki/Steel",
          "manufacturer": "Brand B",
          "brand": "Professional",
          "supplier_location": {
            "address": {
              "number": "4813",
              "street": "Stewart Hills",
              "city": "Laurahaven",
              "region": "Pennsylvania",
              "country": "Slovenia",
              "postcode": "73467"
            },
            "gps_coordinates": "64.640511, -26.794442",
            "directions": "Located behind Wells-Gonzalez",
            "city": "Laurahaven",
            "country": "Slovenia"
          }
        },
        {
          "material_type": "https://en.wikipedia.org/wiki/Plastic",
          "manufacturer": "Brand A",
          "brand": "Industrial",
          "supplier_location": {
            "address": {
              "number": "7538",
              "street": "West Garden",
              "city": "Serranomouth",
              "region": "California",
              "country": "Northern Mariana Islands",
              "postcode": "28274"
            },
            "gps_coordinates": "55.810316, -25.665601",
            "directions": "Located across from Allen Inc",
            "city": "Serranomouth",
            "country": "Northern Mariana Islands"
          }
        },
        {
          "material_type": "https://en.wikipedia.org/wiki/Wood",
          "manufacturer": "Brand B",
          "brand": "Industrial",
          "supplier_location": {
            "address": {
              "number": "6558",
              "street": "Adams Squares",
              "city": "Meganfort",
              "region": "Delaware",
              "country": "Brunei Darussalam",
              "postcode": "46067"
            },
            "gps_coordinates": "28.068757, -117.771013",
            "directions": "Located behind Thompson, David and Cochran",
            "city": "Meganfort",
            "country": "Brunei Darussalam"
          }
        }
      ],
      "axes": 5,
      "working_surface": 400,
      "detailed_capabilities": {
        "tolerance": "±0.01mm",
        "surface_finish": "Ra 0.8-3.2μm",
        "spindle_speed": "1000-12000 RPM",
        "feed_rate": "100-2000 mm/min",
        "tool_changer": "Automatic",
        "tolerance_range": "±0.020mm",
        "supported_materials": [
          "Wood",
          "Plastic",
          "Steel"
        ],
        "process_parameters": {
          "setup_time": "51 minutes",
          "cycle_time": "42 minutes",
          "changeover_time": "18 minutes"
        }
      }
    }
  ],
  "manufacturing_processes": [
    "https://en.wikipedia.org/wiki/3D_printer",
    "https://en.wikipedia.org/wiki/SLA_printer",
    "https://en.wikipedia.org/wiki/CNC_mill"
  ],
  "typical_batch_size": "0 -- 50 units",
  "floor_size": 2833,
  "storage_capacity": "979 cubic meters",
  "typical_materials": [],
  "certifications": [
    "Research Grade"
  ],
  "backup_generator": true,
  "uninterrupted_power_supply": true,
  "road_access": true,
  "maintenance_schedule": "Every 2 months",
  "typical_products": [
    "Versatile motivating array"
  ],
  "circular_economy": {
    "applies_principles": true,
    "description": "Circular economy practices: Face address on amount degree important.",
    "by_products": [
      "or",
      "produce"
    ]
  },
  "human_capacity": {
    "headcount": 36
  },
  "innovation_space": {
    "staff": 7,
    "learning_resources": [
      "Compatible object-oriented orchestration",
      "Programmable fresh-thinking hub",
      "Synergized heuristic complexity",
      "Implemented 24/7 contingency"
    ],
    "services": [
      "Multi-channeled mobile definition",
      "Compatible heuristic secured line",
      "Focused high-level artificial intelligence"
    ],
    "footfall": 17
  },
  "record_data": {
    "date_created": "2025-11-29T22:08:23.197685",
    "created_by": {
      "name": "Holt-Williams",
      "location": {
        "address": {
          "number": "1392",
          "street": "Bianca Ridges",
          "city": "North Heather",
          "region": "Arizona",
          "country": "Seychelles",
          "postcode": "45032"
        },
        "gps_coordinates": "66.526078, -106.572832",
        "directions": "Located near Russell, Cohen and Scott",
        "city": "North Heather",
        "country": "Seychelles"
      },
      "contact_person": "Sharon Avila",
      "bio": "Established in 2017, we specialize in Multi-tiered modular application",
      "website": "https://owens.com",
      "languages": [
        "de",
        "fr"
      ],
      "mailing_list": "amy42@lists.lawson.com",
      "contact": {
        "landline": "+1-698-320-9195",
        "mobile": "+1-528-793-5314",
        "email": "info@parrish.net",
        "whatsapp": "+1-921-919-1247"
      },
      "social_media": {
        "facebook": "https://facebook.com/christopherwest",
        "other_urls": [
          "https://li.org",
          "https://newton.biz"
        ]
      }
    },
    "data_collection_method": "Interview"
  }
}