{
  "id": "68e9cec7-7e9b-4fd7-a68a-ccef802cccac",
  "name": "Rapid Prototyping Lab",
  "location": {
    "address": {
      "number": "1903",
      "street": "Anthony Squares",
      "city": "West Ashley",
      "region": "New York",
      "country": "Bulgaria",
      "postcode": "89540"
    },
    "gps_coordinates": "53.612367, -113.664643",
    "directions": "Located behind Powell PLC",
    "city": "West Ashley",
    "country": "Bulgaria"
  },
  "facility_status": "Active",
  "owner": {
    "name": "Owen-Sawyer",
    "location": {
      "address": {
        "number": "2556",
        "street": "Dixon Fall",
        "city": "Nunezland",
        "region": "Alabama",
        "country": "Cayman Islands",
        "postcode": "32885"
      },
      "gps_coordinates": "64.523012, -122.80886",
      "directions": "Located near Miller-Smith",
      "city": "Nunezland",
      "country": "Cayman Islands"
    },
    "contact_person": "Kenneth Phillips",
    "bio": "Established in 2017, we specialize in Front-line hybrid initiative",
    "website": "https://myers-vincent.com",
    "languages": [
      "en"
    ],
    "mailing_list": "manndavid@lists.rose.com",
    "images": [
      "images/door.jpg",
      "images/behind.jpg",
      "images/easy.jpg"
    ],
    "contact": {
      "landline": "+1-942-376-9498",
      "mobile": "+1-942-846-5504",
      "email": "info@vazquez.biz",
      "whatsapp": "+1-588-683-7003"
    },
    "social_media": {
      "twitter": "@bchung",
      "other_urls": []
    }
  },
  "contact": {
    "name": "Smith-Mcguire",
    "location": {
      "address": {
        "number": "906",
        "street": "Marshall Lights",
        "city": "Rileyside",
        "region": "Arizona",
        "country": "Andorra",
        "postcode": "02768"
      },
      "gps_coordinates": "25.597695, -105.725132",
      "directions": "Located across from Flores Ltd",
      "city": "Rileyside",
      "country": "Andorra"
    },
    "contact_person": "Kathryn Patton",
    "bio": "Established in 2006, we specialize in Extended systematic data-warehouse",
    "website": "https://simmons.com",
    "languages": [
      "en",
      "es"
    ],
    "mailing_list": "brianpayne@lists.smith-moore.info",
    "images": [
      "images/save.jpg",
      "images/son.jpg",
      "images/beautiful.jpg"
    ],
    "contact": {
      "landline": "+1-383-890-5726",
      "mobile": "+1-588-471-3683",
      "email": "info@phillips.com",
      "whatsapp": "+1-753-233-8083"
    },
    "social_media": {
      "facebook": "https://facebook.com/brooksjared",
      "other_urls": [
        "https://smith.org"
      ]
    }
  },
  "opening_hours": "Mon-Fri: 7:00-19:00",
  "description": "University research facility for rapid prototyping",
  "date_founded": "2000-05-05",
  "access_type": "Restricted with public hours",
  "wheelchair_accessibility": "Fully accessible",
  "equipment": [
    {
      "equipment_type": "https://en.wikipedia.org/wiki/3D_printer",
      "manufacturing_process": "https://en.wikipedia.org/wiki/Fused_filament_fabrication",
      "make": "Creality",
      "model": "i3 MK3S+",
      "serial_number": "SN116455",
      "condition": "Fair",
      "notes": "Equipment notes: Between write audience prove group political.",
      "quantity": 5,
      "throughput": "13 parts/hour",
      "power_rating": 2821,
      "maintenance_schedule": "Every 12 months",
      "usage_levels": "High",
      "tolerance_class": "ISO 2768-f",
      "computer_controlled": true,
      "materials_worked": [
        {
          "material_type": "https://en.wikipedia.org/wiki/PLA",
          "manufacturer": "Premium",
          "brand": "Industrial",
          "supplier_location": {
            "address": {
              "number": "479",
              "street": "Williams Divide",
              "city": "Lake Christopher",
              "region": "Connecticut",
              "country": "French Polynesia",
              "postcode": "00715"
            },
            "gps_coordinates": "29.464283, 31.965805",
            "directions": "Located behind Miles-Kelly",
            "city": "Lake Christopher",
            "country": "French Polynesia"
          }
        },
        {
          "material_type": "https://en.wikipedia.org/wiki/PETG",
          "manufacturer": "Brand B",
          "brand": "Standard",
          "supplier_location": {
            "address": {
              "number": "6427",
              "street": "Holly Extensions",
              "city": "Stricklandfort",
              "region": "Nevada",
              "country": "Cape Verde",
              "postcode": "75735"
            },
            "gps_coordinates": "51.991793, -108.763709",
            "directions": "Located across from Hamilton-Perkins",
            "city": "Stricklandfort",
            "country": "Cape Verde"
          }
        },
        {
          "material_type": "https://en.wikipedia.org/wiki/ABS",
          "manufacturer": "Generic",
          "brand": "Industrial",
          "supplier_location": {
            "address": {
              "number": "920",
              "street": "Hernandez Vista",
              "city": "North Jeremiahmouth",
              "region": "Ohio",
              "country": "United Arab Emirates",
              "postcode": "36376"
            },
            "gps_coordinates": "51.505433, -53.625839",
            "directions": "Located near Williams-Smith",
            "city": "North Jeremiahmouth",
            "country": "United Arab Emirates"
          }
        },
        {
          "material_type": "https://en.wikipedia.org/wiki/TPU",
          "manufacturer": "Brand B",
          "brand": "Standard",
          "supplier_location": {
            "address": {
              "number": "9570",
              "street": "Cheryl Summit",
              "city": "Evanshaven",
              "region": "Virginia",
              "country": "Heard Island and McDonald Islands",
              "postcode": "89963"
            },
            "gps_coordinates": "39.396016, 28.134381",
            "directions": "Located near Fitzpatrick PLC",
            "city": "Evanshaven",
            "country": "Heard Island and McDonald Islands"
          }
        }
      ],
      "build_volume": 27000000,
      "nozzle_size": 0.6,
      "detailed_capabilities": {
        "layer_height_range": "0.1-0.3mm",
        "print_speed": "20-100mm/s",
        "temperature_range": "200-280°C",
        "bed_temperature": "60-100°C",
        "supported_formats": [
          "STL",
          "OBJ",
          "3MF"
        ],
        "supported_materials": [
          "PETG",
          "TPU",
          "PLA",
          "ABS"
        ],
        "process_parameters": {
          "setup_time": "62 minutes",
          "cycle_time": "31 minutes",
          "changeover_time": "27 minutes"
        }
      }
    },
    {
      "equipment_type": "https://en.wikipedia.org/wiki/SLA_printer",
      "manufacturing_process": "https://en.wikipedia.org/wiki/SLA_printer",
      "make": "Generic",
      "model": "Model 470",
      "condition": "Fair",
      "computer_controlled": true
    },
    {
      "equipment_type": "https://en.wikipedia.org/wiki/CNC_mill",
      "manufacturing_process": "https://en.wikipedia.org/wiki/Machining",
      "make": "Mazak",
      "model": "PCNC 440",
      "serial_number": "SN359844",
      "condition": "Good",
      "notes": "Equipment notes: Determine environment send.",
      "quantity": 1,
      "throughput": "2 parts/hour",
      "power_rating": 6246,
      "maintenance_schedule": "Every 6 months",
      "usage_levels": "Low",
      "tolerance_class": "ISO 2768-m",
      "computer_controlled": true,
      "materials_worked": [
        {
          "material_type": "https://en.wikipedia.org/wiki/Aluminum",
          "manufacturer": "Generic",
          "brand": "Professional",
          "supplier_location": {
            "address": {
              "number": "8966",
              "street": "Jennifer Brook",
              "city": "West Christopher",
              "region": "Maryland",
              "country": "Marshall Islands",
              "postcode": "86159"
            },
            "gps_coordinates": "30.400232, -88.51714",
            "directions": "Located near Reese, Hill and Ortega",
            "city": "West Christopher",
            "country": "Marshall Islands"
          }
        },
        {
          "material_type": "https://en.wikipedia.org/wiki/Steel",
          "manufacturer": "Premium",
          "brand": "Standard",
          "supplier_location": {
            "address": {
              "number": "6108",
              "street": "Gibson Tunnel",
              "city": "Port Heathermouth",
              "region": "Maryland",
              "country": "Lebanon",
              "postcode": "56823"
            },
            "gps_coordinates": "29.281368, -44.952786",
            "directions": "Located near Wilson LLC",
            "city": "Port Heathermouth",
            "country": "Lebanon"
          }
        },
        {
          "material_type": "https://en.wikipedia.org/wiki/Plastic",
          "manufacturer": "Premium",
          "brand": "Professional",
          "supplier_location": {
            "address": {
              "number": "3531",
              "street": "Stephen Freeway",
              "city": "Mullenhaven",
              "region": "Delaware",
              "country": "United Kingdom",
              "postcode": "18435"
            },
            "gps_coordinates": "46.158821, -95.526662",
            "directions": "Located near Hale, Long and Vaughn",
            "city": "Mullenhaven",
            "country": "United Kingdom"
          }
        },
        {
          "material_type": "https://en.wikipedia.org/wiki/Wood",
          "manufacturer": "Premium",
          "brand": "Standard",
          "supplier_location": {
            "address": {
              "number": "3721",
              "street": "Stein Branch",
              "city": "West Ambermouth",
              "region": "Arizona",
              "country": "Greece",
              "postcode": "12868"
            },
            "gps_coordinates": "45.684277, 9.431184",
            "directions": "Located across from Hood-Farrell",
            "city": "West Ambermouth",
            "country": "Greece"
          }
        }
      ],
      "axes": 3,
      "working_surface": 800,
      "detailed_capabilities": {
        "tolerance": "±0.01mm",
        "surface_finish": "Ra 0.8-3.2μm",
        "spindle_speed": "1000-12000 RPM",
        "feed_rate": "100-2000 mm/min",
        "tool_changer": "Automatic",
        "tolerance_range": "±0.01mm",
        "supported_materials": [
          "Wood",
          "Aluminum",
          "Plastic"
        ],
        "process_parameters": {
          "setup_time": "80 minutes",
          "cycle_time": "29 minutes",
          "changeover_time": "26 minutes"
        }
      }
    }
  ],
  "manufacturing_processes": [
    "https://en.wikipedia.org/wiki/3D_printer",
    "https://en.wikipedia.org/wiki/SLA_printer",
    "https://en.wikipedia.org/wiki/CNC_mill"
  ],
  "typical_batch_size": "0 -- 50 units",
  "floor_size": 4933,
  "storage_capacity": "97 cubic meters",
  "typical_materials": [],
  "certifications": [
    "Research Grade"
  ],
  "backup_generator": true,
  "maintenance_schedule": "Every 3 months",
  "typical_products": [
    "Upgradable encompassing concept",
    "Adaptive needs-based circuit",
    "Integrated demand-driven installation",
    "Cloned clear-thinking methodology"
  ],
  "human_capacity": {
    "headcount": 28
  },
  "innovation_space": {
    "staff": 3,
    "learning_resources": [
      "Self-enabling bi-directional Graphic Interface",
      "Vision-oriented intangible functionalities",
      "Synchronized exuding knowledgebase"
    ],
    "services": [
      "Streamlined composite database"
    ],
    "footfall": 10
  },
  "record_data": {
    "date_created": "2025-11-29T22:08:23.179986",
    "created_by": {
      "name": "Davies, Pace and Martin",
      "location": {
        "address": {
          "number": "8721",
          "street": "Morris Expressway",
          "city": "Gonzalezmouth",
          "region": "Alaska",
          "country": "Tokelau",
          "postcode": "08177"
        },
        "gps_coordinates": "27.917459, 6.843141",
        "directions": "Located across from Crawford-Snyder",
        "city": "Gonzalezmouth",
        "country": "Tokelau"
      },
      "contact_person": "Sandra Burke",
      "bio": "Established in 2001, we specialize in Integrated stable framework",
      "website": "https://richmond.com",
      "languages": [
        "de",
        "en"
      ],
      "mailing_list": "barbarahernandez@lists.deleon.com",
      "images": [
        "images/evidence.jpg",
        "images/finish.jpg",
        "images/event.jpg"
      ],
      "contact": {
        "landline": "+1-372-447-3158",
        "mobile": "+1-381-677-5832",
        "email": "info@powell.biz",
        "whatsapp": "+1-300-387-9419"
      },
      "social_media": {
        "facebook": "https://facebook.com/cbanks",
        "instagram": "@palmerkyle",
        "other_urls": [
          "https://moody.org",
          "https://george-ryan.com"
        ]
      }
    },
    "data_collection_method": "Survey"
  }
}