{
  "id": "c29a1d23-be6c-4bb3-b222-82fbf1ba2bce",
  "name": "Industrial Manufacturing Plant",
  "location": {
    "address": {
      "number": "9585",
      "street": "Donovan Plains",
      "city": "Lake Christopher",
      "region": "New Mexico",
      "country": "Reunion",
      "postcode": "91580"
    },
    "gps_coordinates": "30.35628, -65.605562",
    "directions": "Located across from Brooks Inc",
    "city": "Lake Christopher",
    "country": "Reunion"
  },
  "facility_status": "Active",
  "owner": {
    "name": "Blackwell and Sons",
    "location": {
      "address": {
        "number": "5877",
        "street": "Perkins Landing",
        "city": "Port Samuelburgh",
        "region": "Idaho",
        "country": "Gabon",
        "postcode": "01077"
      },
      "gps_coordinates": "68.850404, 25.080222",
      "directions": "Located near Campos Group",
      "city": "Port Samuelburgh",
      "country": "Gabon"
    },
    "contact_person": "Gregory Salazar",
    "bio": "Established in 2000, we specialize in Open-source homogeneous hardware",
    "website": "https://baker-mason.com",
    "languages": [
      "en",
      "de"
    ],
    "mailing_list": "ryanrussell@lists.bailey.com",
    "images": [
      "images/he.jpg"
    ],
    "contact": {
      "landline": "+1-297-230-6679",
      "mobile": "+1-915-431-7640",
      "email": "info@gordon.com",
      "whatsapp": "+1-278-950-9074"
    },
    "social_media": {
      "facebook": "https://facebook.com/tkennedy",
      "instagram": "@guzmansusan",
      "other_urls": [
        "https://hanson.org",
        "https://maxwell-nielsen.org"
      ]
    }
  },
  "contact": {
    "name": "Mcdonald Ltd",
    "location": {
      "address": {
        "number": "4605",
        "street": "Martin Hollow",
        "city": "Port Marvinville",
        "region": "Florida",
        "country": "Bolivia",
        "postcode": "54208"
      },
      "gps_coordinates": "44.411326, 21.866021",
      "directions": "Located behind Davidson LLC",
      "city": "Port Marvinville",
      "country": "Bolivia"
    },
    "contact_person": "Kathy Adams",
    "bio": "Established in 2020, we specialize in Proactive methodical adapter",
    "website": "https://roberts.org",
    "languages": [
      "es",
      "en",
      "de"
    ],
    "mailing_list": "nbrewer@lists.smith.net",
    "images": [
      "images/song.jpg",
      "images/have.jpg"
    ],
    "contact": {
      "landline": "+1-434-444-6082",
      "mobile": "+1-541-956-2498",
      "email": "info@richardson-stephenson.org",
      "whatsapp": "+1-554-511-5196"
    },
    "social_media": {
      "twitter": "@iwheeler",
      "instagram": "@emorales",
      "other_urls": [
        "https://baker.com",
        "https://weaver.com"
      ]
    }
  },
  "opening_hours": "Mon-Fri: 6:00-21:00",
  "description": "Large-scale manufacturing facility",
  "date_founded": "2006-04-16",
  "access_type": "Restricted",
  "wheelchair_accessibility": "Not accessible",
  "equipment": [
    {
      "equipment_type": "https://en.wikipedia.org/wiki/CNC_mill",
      "manufacturing_process": "https://en.wikipedia.org/wiki/Machining",
      "make": "DMG Mori",
      "model": "VTC-20",
      "serial_number": "SN309550",
      "condition": "Excellent",
      "notes": "Equipment notes: View political agent street ten.",
      "quantity": 4,
      "throughput": "37 parts/hour",
      "power_rating": 8500,
      "maintenance_schedule": "Every 1 months",
      "usage_levels": "Medium",
      "tolerance_class": "ISO 2768-m",
      "uninterrupted_power_supply": true,
      "computer_controlled": true,
      "materials_worked": [
        {
          "material_type": "https://en.wikipedia.org/wiki/Aluminum",
          "manufacturer": "Brand A",
          "brand": "Standard",
          "supplier_location": {
            "address": {
              "number": "8113",
              "street": "West Walk",
              "city": "South Heatherland",
              "region": "New Hampshire",
              "country": "Jersey",
              "postcode": "08566"
            },
            "gps_coordinates": "58.047469, -17.509678",
            "directions": "Located near Raymond, Ingram and Cummings",
            "city": "South Heatherland",
            "country": "Jersey"
          }
        },
        {
          "material_type": "https://en.wikipedia.org/wiki/Steel",
          "manufacturer": "Brand B",
          "brand": "Professional",
          "supplier_location": {
            "address": {
              "number": "7612",
              "street": "Bryan Ridge",
              "city": "North Adam",
              "region": "Idaho",
              "country": "Iceland",
              "postcode": "02135"
            },
            "gps_coordinates": "27.00143, -41.978326",
            "directions": "Located behind Strickland, Jackson and Hill",
            "city": "North Adam",
            "country": "Iceland"
          }
        },
        {
          "material_type": "https://en.wikipedia.org/wiki/Plastic",
          "manufacturer": "Premium",
          "brand": "Standard",
          "supplier_location": {
            "address": {
              "number": "3062",
              "street": "Valerie Rapids",
              "city": "West Loretta",
              "region": "Montana",
              "country": "Haiti",
              "postcode": "70046"
            },
            "gps_coordinates": "67.254856, -40.220245",
            "directions": "Located near Griffin PLC",
            "city": "West Loretta",
            "country": "Haiti"
          }
        },
        {
          "material_type": "https://en.wikipedia.org/wiki/Wood",
          "manufacturer": "Brand B",
          "brand": "Industrial",
          "supplier_location": {
            "address": {
              "number": "4639",
              "street": "Tammy Villages",
              "city": "Parkerhaven",
              "region": "Hawaii",
              "country": "Switzerland",
              "postcode": "28172"
            },
            "gps_coordinates": "51.289348, -25.058704",
            "directions": "Located across from Rush PLC",
            "city": "Parkerhaven",
            "country": "Switzerland"
          }
        }
      ],
      "axes": 5,
      "working_surface": 400,
      "detailed_capabilities": {
        "tolerance": "±0.01mm",
        "surface_finish": "Ra 0.8-3.2μm",
        "spindle_speed": "1000-12000 RPM",
        "feed_rate": "100-2000 mm/min",
        "tool_changer": "Automatic",
        "tolerance_range": "±0.01mm",
        "supported_materials": [
          "Wood",
          "Aluminum",
          "Plastic"
        ],
        "process_parameters": {
          "setup_time": "24 minutes",
          "cycle_time": "49 minutes",
          "changeover_time": "16 minutes"
        }
      }
    },
    {
      "equipment_type": "https://en.wikipedia.org/wiki/CNC_lathe",
      "manufacturing_process": "https://en.wikipedia.org/wiki/CNC_lathe",
      "make": "Brand B",
      "model": "Model 219",
      "condition": "Excellent"
    },
    {
      "equipment_type": "https://en.wikipedia.org/wiki/Sheet_metal_brake",
      "manufacturing_process": "https://en.wikipedia.org/wiki/Sheet_metal_brake",
      "make": "Generic",
      "model": "Model 917",
      "condition": "Excellent"
    },
    {
      "equipment_type": "https://en.wikipedia.org/wiki/Welder",
      "manufacturing_process": "https://en.wikipedia.org/wiki/Welder",
      "make": "Brand B",
      "model": "Model 961",
      "condition": "Excellent"
    }
  ],
  "manufacturing_processes": [
    "https://en.wikipedia.org/wiki/CNC_mill",
    "https://en.wikipedia.org/wiki/CNC_lathe",
    "https://en.wikipedia.org/wiki/Sheet_metal_brake",
    "https://en.wikipedia.org/wiki/Welder"
  ],
  "typical_batch_size": "500 -- 5000 units",
  "floor_size": 2924,
  "storage_capacity": "506 cubic meters",
  "certifications": [
    "ISO 9001",
    "ISO 14001",
    "OHSAS 18001"
  ],
  "backup_generator": true,
  "uninterrupted_power_supply": true,
  "road_access": true,
  "maintenance_schedule": "Every 6 months",
  "typical_products": [
    "Managed 6thgeneration knowledge user",
    "Stand-alone regional encoding"
  ],
  "circular_economy": {
    "applies_principles": true,
    "description": "Circular economy practices: Blue save as structure win always.",
    "by_products": [
      "answer",
      "into"
    ]
  },
  "human_capacity": {
    "headcount": 36
  },
  "innovation_space": {
    "staff": 1,
    "footfall": 64,
    "residencies": true
  },
  "record_data": {
    "date_created": "2025-11-09T13:16:43.230533",
    "created_by": {
      "name": "Banks Ltd",
      "location": {
        "address": {
          "number": "7392",
          "street": "Singh Valleys",
          "city": "Murphychester",
          "region": "Texas",
          "country": "Falkland Islands (Malvinas)",
          "postcode": "91614"
        },
        "gps_coordinates": "64.653029, -83.415024",
        "directions": "Located near Moore, Cruz and Lopez",
        "city": "Murphychester",
        "country": "Falkland Islands (Malvinas)"
      },
      "contact_person": "Michael Harrison",
      "bio": "Established in 1992, we specialize in Open-source contextually-based analyzer",
      "website": "https://escobar-moore.com",
      "languages": [
        "es",
        "fr"
      ],
      "mailing_list": "jacob57@lists.cole.com",
      "images": [
        "images/writer.jpg",
        "images/bank.jpg"
      ],
      "contact": {
        "landline": "+1-313-356-3291",
        "mobile": "+1-314-289-5012",
        "email": "info@hernandez.biz",
        "whatsapp": "+1-707-489-5452"
      },
      "social_media": {
        "twitter": "@astevens",
        "instagram": "@bethany95",
        "other_urls": [
          "https://blackwell.com",
          "https://harrison-khan.org"
        ]
      }
    },
    "data_collection_method": "Direct observation"
  }
}