{
  "id": "5fd4b4d4-eeae-4a5d-b0da-80425979502e",
  "name": "3D Printing Facility 2",
  "location": {
    "address": {
      "number": "6166",
      "street": "Charles Forge",
      "city": "San Jose",
      "region": "MA",
      "country": "US",
      "postcode": "74316"
    },
    "gps_coordinates": "37.3361663, -121.890591",
    "directions": "Located behind Mcfarland Group",
    "city": "San Jose",
    "country": "US"
  },
  "facility_status": "Active",
  "owner": {
    "name": "Merritt, Coleman and Gutierrez",
    "location": {
      "address": {
        "number": "1127",
        "street": "Ryan Lodge",
        "city": "Jacksonville",
        "region": "CO",
        "country": "US",
        "postcode": "51805"
      },
      "gps_coordinates": "30.3262247, -81.6579179",
      "directions": "Located behind Chandler-Matthews",
      "city": "Jacksonville",
      "country": "US"
    },
    "contact_person": "Cynthia Espinoza",
    "bio": "Established in 1993, we specialize in Horizontal static benchmark",
    "website": "https://rogers.com",
    "languages": [
      "es",
      "en",
      "de"
    ],
    "mailing_list": "lvasquez@lists.young-smith.com",
    "images": [
      "images/professional.jpg",
      "images/project.jpg"
    ],
    "contact": {
      "landline": "+1-668-964-3650",
      "mobile": "+1-345-226-4968",
      "email": "info@white.com",
      "whatsapp": "+1-264-289-5099"
    },
    "social_media": {
      "twitter": "@sarahwalton",
      "instagram": "@brian93",
      "other_urls": [
        "https://pearson.net"
      ]
    }
  },
  "contact": {
    "name": "Goodman LLC",
    "location": {
      "address": {
        "number": "4416",
        "street": "Thompson Loop",
        "city": "San Diego",
        "region": "PW",
        "country": "US",
        "postcode": "01952"
      },
      "gps_coordinates": "32.7174202, -117.162772",
      "directions": "Located behind Jenkins, Winters and Stewart",
      "city": "San Diego",
      "country": "US"
    },
    "contact_person": "Jessica Cohen",
    "bio": "Established in 2006, we specialize in Right-sized logistical approach",
    "website": "https://wong.info",
    "languages": [
      "fr",
      "es"
    ],
    "mailing_list": "jimmy17@lists.fitzgerald.com",
    "images": [
      "images/whatever.jpg",
      "images/once.jpg"
    ],
    "contact": {
      "landline": "+1-339-260-2159",
      "mobile": "+1-608-678-3082",
      "email": "info@yang.info",
      "whatsapp": "+1-770-937-4803"
    },
    "social_media": {
      "facebook": "https://facebook.com/georgejackson",
      "other_urls": []
    }
  },
  "opening_hours": "Mon-Fri: 6:00-20:00",
  "description": "Specialized in additive manufacturing and rapid prototyping",
  "date_founded": "2012-06-19",
  "access_type": "Membership",
  "equipment": [
    {
      "equipment_type": "https://en.wikipedia.org/wiki/3D_printer",
      "manufacturing_process": "https://en.wikipedia.org/wiki/Fused_filament_fabrication",
      "make": "Creality",
      "model": "S5",
      "serial_number": "SN204122",
      "condition": "Good",
      "notes": "Equipment notes: Significant total near tax end material open.",
      "quantity": 5,
      "throughput": "87 parts/hour",
      "power_rating": 6514,
      "maintenance_schedule": "Every 4 months",
      "usage_levels": "Low",
      "tolerance_class": "ISO 2768-m",
      "uninterrupted_power_supply": true,
      "computer_controlled": true,
      "materials_worked": [
        {
          "material_type": "https://en.wikipedia.org/wiki/PLA",
          "manufacturer": "Brand A",
          "brand": "Standard",
          "supplier_location": {
            "address": {
              "number": "6350",
              "street": "Robert Estate",
              "city": "Houston",
              "region": "SC",
              "country": "US",
              "postcode": "48767"
            },
            "gps_coordinates": "29.7589382, -95.3676974",
            "directions": "Located behind Brown, Hamilton and Webb",
            "city": "Houston",
            "country": "US"
          }
        },
        {
          "material_type": "https://en.wikipedia.org/wiki/PETG",
          "manufacturer": "Generic",
          "brand": "Industrial",
          "supplier_location": {
            "address": {
              "number": "5354",
              "street": "Horton Run",
              "city": "Columbus",
              "region": "PR",
              "country": "US",
              "postcode": "22610"
            },
            "gps_coordinates": "39.9622601, -83.0007065",
            "directions": "Located across from Williams, Cunningham and Castro",
            "city": "Columbus",
            "country": "US"
          }
        },
        {
          "material_type": "https://en.wikipedia.org/wiki/ABS",
          "manufacturer": "Generic",
          "brand": "Professional",
          "supplier_location": {
            "address": {
              "number": "9807",
              "street": "Curtis Club",
              "city": "Los Angeles",
              "region": "LA",
              "country": "US",
              "postcode": "66949"
            },
            "gps_coordinates": "34.0536909, -118.242766",
            "directions": "Located across from Myers-Miller",
            "city": "Los Angeles",
            "country": "US"
          }
        },
        {
          "material_type": "https://en.wikipedia.org/wiki/TPU",
          "manufacturer": "Premium",
          "brand": "Standard",
          "supplier_location": {
            "address": {
              "number": "5373",
              "street": "Hill Shoal",
              "city": "Columbus",
              "region": "IN",
              "country": "US",
              "postcode": "04062"
            },
            "gps_coordinates": "39.9622601, -83.0007065",
            "directions": "Located behind Hayes-Reed",
            "city": "Columbus",
            "country": "US"
          }
        }
      ],
      "build_volume": 64000000,
      "nozzle_size": 0.6
    },
    {
      "equipment_type": "https://en.wikipedia.org/wiki/SLA_printer",
      "manufacturing_process": "https://en.wikipedia.org/wiki/SLA_printer",
      "make": "Brand B",
      "model": "Model 778",
      "condition": "Excellent",
      "computer_controlled": true
    }
  ],
  "manufacturing_processes": [
    "https://en.wikipedia.org/wiki/Fused_filament_fabrication"
  ],
  "typical_batch_size": "0 -- 50 units",
  "floor_size": 2483,
  "storage_capacity": "422 cubic meters",
  "typical_materials": [],
  "certifications": [
    "First Aid Training",
    "Equipment Operation Certification"
  ],
  "backup_generator": true,
  "uninterrupted_power_supply": true,
  "maintenance_schedule": "Every 5 months",
  "typical_products": [
    "Secured heuristic collaboration",
    "Inverse contextually-based superstructure",
    "Synergistic human-resource collaboration"
  ]
}