{
  "id": "6f0ee9e1-03a1-46a4-8fc2-60fb084d1861",
  "name": "3D Printing Facility 1",
  "location": {
    "address": {
      "number": "2482",
      "street": "Cruz Flats",
      "city": "Jacksonville",
      "region": "ND",
      "country": "US",
      "postcode": "03651"
    },
    "gps_coordinates": "30.3262247, -81.6579179",
    "directions": "Located across from Howell LLC",
    "city": "Jacksonville",
    "country": "US"
  },
  "facility_status": "Active",
  "owner": {
    "name": "Greene Ltd",
    "location": {
      "address": {
        "number": "6044",
        "street": "Valdez Hollow",
        "city": "San Jose",
        "region": "PW",
        "country": "US",
        "postcode": "60178"
      },
      "gps_coordinates": "37.3361663, -121.890591",
      "directions": "Located behind Howard LLC",
      "city": "San Jose",
      "country": "US"
    },
    "contact_person": "Jeffrey Williams",
    "bio": "Established in 1996, we specialize in Ergonomic 24hour matrices",
    "website": "https://watkins.info",
    "languages": [
      "en",
      "fr"
    ],
    "mailing_list": "williamsstephanie@lists.simpson.com",
    "images": [
      "images/up.jpg"
    ],
    "contact": {
      "landline": "+1-477-523-6498",
      "mobile": "+1-361-408-7863",
      "email": "info@willis.com",
      "whatsapp": "+1-556-679-4014"
    },
    "social_media": {
      "facebook": "https://facebook.com/michaelsparks",
      "twitter": "@johngeorge",
      "instagram": "@levyjimmy",
      "other_urls": [
        "https://parks.com"
      ]
    }
  },
  "contact": {
    "name": "Taylor-Smith",
    "location": {
      "address": {
        "number": "2677",
        "street": "Christopher Highway",
        "city": "Indianapolis",
        "region": "AR",
        "country": "US",
        "postcode": "35660"
      },
      "gps_coordinates": "39.7683331, -86.1583502",
      "directions": "Located near Andrews-Alvarez",
      "city": "Indianapolis",
      "country": "US"
    },
    "contact_person": "Mitchell Martinez",
    "bio": "Established in 2006, we specialize in Face-to-face heuristic protocol",
    "website": "https://wagner-wilson.com",
    "languages": [
      "es",
      "fr"
    ],
    "mailing_list": "michaelsarah@lists.keller.info",
    "contact": {
      "landline": "+1-638-287-2987",
      "mobile": "+1-343-469-8149",
      "email": "info@stewart.com",
      "whatsapp": "+1-635-530-5256"
    },
    "social_media": {
      "facebook": "https://facebook.com/elizabethortiz",
      "twitter": "@kaylabrown",
      "other_urls": []
    }
  },
  "opening_hours": "Mon-Fri: 6:00-20:00",
  "description": "Specialized in additive manufacturing and rapid prototyping",
  "date_founded": "1997-07-06",
  "access_type": "Membership",
  "equipment": [
    {
      "equipment_type": "https://en.wikipedia.org/wiki/3D_printer",
      "manufacturing_process": "https://en.wikipedia.org/wiki/Fused_filament_fabrication",
      "make": "Formlabs",
      "model": "S5",
      "serial_number": "SN818854",
      "condition": "Excellent",
      "notes": "Equipment notes: Another list hospital every economic seek.",
      "quantity": 1,
      "throughput": "10 parts/hour",
      "power_rating": 1978,
      "maintenance_schedule": "Every 10 months",
      "usage_levels": "Low",
      "tolerance_class": "ISO 2768-c",
      "computer_controlled": true,
      "extraction_system": true,
      "materials_worked": [
        {
          "material_type": "https://en.wikipedia.org/wiki/PLA",
          "manufacturer": "Generic",
          "brand": "Professional",
          "supplier_location": {
            "address": {
              "number": "4215",
              "street": "Patterson Glens",
              "city": "Phoenix",
              "region": "ID",
              "country": "US",
              "postcode": "45127"
            },
            "gps_coordinates": "33.4484367, -112.074141",
            "directions": "Located across from Best-Spencer",
            "city": "Phoenix",
            "country": "US"
          }
        },
        {
          "material_type": "https://en.wikipedia.org/wiki/PETG",
          "manufacturer": "Brand A",
          "brand": "Professional",
          "supplier_location": {
            "address": {
              "number": "303",
              "street": "Sarah Fords",
              "city": "New York",
              "region": "RI",
              "country": "US",
              "postcode": "41170"
            },
            "gps_coordinates": "40.7127281, -74.0060152",
            "directions": "Located near Soto LLC",
            "city": "New York",
            "country": "US"
          }
        },
        {
          "material_type": "https://en.wikipedia.org/wiki/ABS",
          "manufacturer": "Generic",
          "brand": "Industrial",
          "supplier_location": {
            "address": {
              "number": "3665",
              "street": "Newton Rue",
              "city": "Denver",
              "region": "CA",
              "country": "US",
              "postcode": "35151"
            },
            "gps_coordinates": "39.7392364, -104.984862",
            "directions": "Located near Moore LLC",
            "city": "Denver",
            "country": "US"
          }
        },
        {
          "material_type": "https://en.wikipedia.org/wiki/TPU",
          "manufacturer": "Brand A",
          "brand": "Industrial",
          "supplier_location": {
            "address": {
              "number": "3634",
              "street": "Karina Lodge",
              "city": "Jacksonville",
              "region": "RI",
              "country": "US",
              "postcode": "28013"
            },
            "gps_coordinates": "30.3262247, -81.6579179",
            "directions": "Located near Bell Ltd",
            "city": "Jacksonville",
            "country": "US"
          }
        }
      ],
      "build_volume": 27000000,
      "nozzle_size": 0.6
    },
    {
      "equipment_type": "https://en.wikipedia.org/wiki/SLA_printer",
      "manufacturing_process": "https://en.wikipedia.org/wiki/SLA_printer",
      "make": "Brand A",
      "model": "Model 976",
      "condition": "Fair",
      "computer_controlled": true
    }
  ],
  "manufacturing_processes": [
    "https://en.wikipedia.org/wiki/Fused_filament_fabrication"
  ],
  "typical_batch_size": "0 -- 50 units",
  "floor_size": 1547,
  "storage_capacity": "67 cubic meters",
  "typical_materials": [],
  "certifications": [
    "Basic Safety Training",
    "First Aid Training"
  ],
  "road_access": true,
  "loading_dock": true,
  "maintenance_schedule": "Every 4 months",
  "typical_products": [
    "Business-focused bi-directional moderator",
    "Implemented bandwidth-monitored software",
    "Synchronized static analyzer"
  ]
}