{
  "id": "ffa3b242-88e2-4d47-b22d-1683ed515ff6",
  "name": "Assembly Facility 2",
  "location": {
    "address": {
      "number": "242",
      "street": "Thomas View",
      "city": "New York",
      "region": "CA",
      "country": "US",
      "postcode": "54498"
    },
    "gps_coordinates": "40.7127281, -74.0060152",
    "directions": "Located near Khan, Jimenez and Klein",
    "city": "New York",
    "country": "US"
  },
  "facility_status": "Active",
  "owner": {
    "name": "Harper and Sons",
    "location": {
      "address": {
        "number": "31",
        "street": "Andrews Row",
        "city": "Boston",
        "region": "PR",
        "country": "US",
        "postcode": "21586"
      },
      "gps_coordinates": "42.3588336, -71.0578303",
      "directions": "Located behind Love-Mitchell",
      "city": "Boston",
      "country": "US"
    },
    "contact_person": "Benjamin Leonard",
    "bio": "Established in 2009, we specialize in Organized multi-tasking core",
    "website": "https://butler.com",
    "languages": [
      "en",
      "es"
    ],
    "mailing_list": "melissa02@lists.estes.biz",
    "images": [
      "images/someone.jpg",
      "images/world.jpg"
    ],
    "contact": {
      "landline": "+1-292-392-3543",
      "mobile": "+1-453-988-8778",
      "email": "info@rivera.com",
      "whatsapp": "+1-759-750-9783"
    },
    "social_media": {
      "instagram": "@tdixon",
      "other_urls": [
        "https://oliver.com"
      ]
    }
  },
  "contact": {
    "name": "Lewis-Villegas",
    "location": {
      "address": {
        "number": "5695",
        "street": "Michael Rapids",
        "city": "Indianapolis",
        "region": "MS",
        "country": "US",
        "postcode": "88404"
      },
      "gps_coordinates": "39.7683331, -86.1583502",
      "directions": "Located near Weber and Sons",
      "city": "Indianapolis",
      "country": "US"
    },
    "contact_person": "Richard Nelson",
    "bio": "Established in 1999, we specialize in Ergonomic value-added flexibility",
    "website": "https://price-mccormick.com",
    "languages": [
      "es",
      "de",
      "en"
    ],
    "mailing_list": "williamsontracy@lists.robinson.com",
    "images": [
      "images/little.jpg"
    ],
    "contact": {
      "landline": "+1-232-887-9389",
      "mobile": "+1-567-277-6831",
      "email": "info@lewis.com",
      "whatsapp": "+1-887-695-7047"
    },
    "social_media": {
      "facebook": "https://facebook.com/zwarren",
      "twitter": "@robinsonjohn",
      "other_urls": [
        "https://davies.com"
      ]
    }
  },
  "opening_hours": "Mon-Fri: 7:00-18:00",
  "description": "Specialized in product assembly and integration",
  "date_founded": "1999-10-07",
  "access_type": "Restricted",
  "equipment": [
    {
      "equipment_type": "https://en.wikipedia.org/wiki/Assembly_station",
      "manufacturing_process": "https://en.wikipedia.org/wiki/Assembly_station",
      "make": "Brand A",
      "model": "Model 881",
      "condition": "Excellent",
      "computer_controlled": true
    },
    {
      "equipment_type": "https://en.wikipedia.org/wiki/Testing_equipment",
      "manufacturing_process": "https://en.wikipedia.org/wiki/Testing_equipment",
      "make": "Generic",
      "model": "Model 328",
      "condition": "Good"
    }
  ],
  "manufacturing_processes": [
    "https://en.wikipedia.org/wiki/Assembly_line"
  ],
  "typical_batch_size": "50 -- 500 units",
  "floor_size": 3369,
  "storage_capacity": "608 cubic meters",
  "typical_materials": [],
  "certifications": [
    "OHSAS 18001",
    "ISO 14001"
  ],
  "backup_generator": true,
  "uninterrupted_power_supply": true,
  "road_access": true,
  "loading_dock": true,
  "maintenance_schedule": "Every 2 months",
  "typical_products": [
    "Expanded real-time contingency",
    "Adaptive contextually-based paradigm"
  ]
}