{
  "id": "7afa1ca2-8c52-4837-b7c2-09172b2f63b1",
  "name": "Community Makerspace",
  "location": {
    "address": {
      "number": "5841",
      "street": "Arthur Lodge",
      "city": "Garcialand",
      "region": "Maine",
      "country": "Burundi",
      "postcode": "28716"
    },
    "gps_coordinates": "63.174552, -18.440748",
    "directions": "Located near Petersen-Moreno",
    "city": "Garcialand",
    "country": "Burundi"
  },
  "facility_status": "Active",
  "owner": {
    "name": "Salazar-Dixon",
    "location": {
      "address": {
        "number": "596",
        "street": "Davis Valleys",
        "city": "South Peter",
        "region": "California",
        "country": "Croatia",
        "postcode": "34412"
      },
      "gps_coordinates": "43.71579, -102.600529",
      "directions": "Located across from Clark, Cook and Miller",
      "city": "South Peter",
      "country": "Croatia"
    },
    "contact_person": "Anita Drake",
    "bio": "Established in 1996, we specialize in Multi-layered asymmetric success",
    "website": "https://owens.info",
    "languages": [
      "en"
    ],
    "mailing_list": "zhampton@lists.collins-burke.com",
    "images": [
      "images/edge.jpg",
      "images/sign.jpg",
      "images/home.jpg"
    ],
    "contact": {
      "landline": "+1-943-772-9153",
      "mobile": "+1-245-379-1404",
      "email": "info@long.com",
      "whatsapp": "+1-875-843-2756"
    },
    "social_media": {
      "twitter": "@kennethwalker",
      "other_urls": [
        "https://petty.com",
        "https://holland.com"
      ]
    }
  },
  "contact": {
    "name": "Ramirez-Ramirez",
    "location": {
      "address": {
        "number": "9544",
        "street": "Karen Hollow",
        "city": "Copelandmouth",
        "region": "Hawaii",
        "country": "Tajikistan",
        "postcode": "54523"
      },
      "gps_coordinates": "33.342174, -12.386001",
      "directions": "Located behind Johnson Inc",
      "city": "Copelandmouth",
      "country": "Tajikistan"
    },
    "contact_person": "Sara Morgan",
    "bio": "Established in 2005, we specialize in Centralized 4thgeneration functionalities",
    "website": "https://ferguson.com",
    "languages": [
      "fr",
      "en",
      "es"
    ],
    "mailing_list": "qwright@lists.perry.com",
    "contact": {
      "landline": "+1-638-386-9959",
      "mobile": "+1-729-933-1280",
      "email": "info@norton.com",
      "whatsapp": "+1-423-806-9263"
    },
    "social_media": {
      "facebook": "https://facebook.com/sethrussell",
      "twitter": "@ruben64",
      "instagram": "@khogan",
      "other_urls": [
        "https://duran-anderson.biz",
        "https://aguilar.info"
      ]
    }
  },
  "opening_hours": "Mon-Fri: 7:00-18:00",
  "description": "Public makerspace with basic fabrication equipment",
  "date_founded": "2002-04-14",
  "access_type": "Membership",
  "wheelchair_accessibility": "Not accessible",
  "equipment": [
    {
      "equipment_type": "https://en.wikipedia.org/wiki/3D_printer",
      "manufacturing_process": "https://en.wikipedia.org/wiki/Fused_filament_fabrication",
      "make": "Formlabs",
      "model": "Ender 3",
      "serial_number": "SN800300",
      "condition": "Excellent",
      "notes": "Equipment notes: Yourself picture not compare require.",
      "quantity": 2,
      "throughput": "15 parts/hour",
      "power_rating": 7317,
      "maintenance_schedule": "Every 7 months",
      "usage_levels": "Low",
      "tolerance_class": "ISO 2768-c",
      "computer_controlled": true,
      "materials_worked": [
        {
          "material_type": "https://en.wikipedia.org/wiki/PLA",
          "manufacturer": "Brand B",
          "brand": "Standard",
          "supplier_location": {
            "address": {
              "number": "893",
              "street": "Olivia Branch",
              "city": "New Sandraland",
              "region": "Michigan",
              "country": "Nauru",
              "postcode": "41331"
            },
            "gps_coordinates": "63.465605, 33.139007",
            "directions": "Located across from Brown, Casey and Ortiz",
            "city": "New Sandraland",
            "country": "Nauru"
          }
        },
        {
          "material_type": "https://en.wikipedia.org/wiki/PETG",
          "manufacturer": "Premium",
          "brand": "Professional",
          "supplier_location": {
            "address": {
              "number": "8139",
              "street": "Joseph Shore",
              "city": "Perrymouth",
              "region": "Arizona",
              "country": "Zambia",
              "postcode": "37812"
            },
            "gps_coordinates": "34.76346, -113.249382",
            "directions": "Located near Clark-Blankenship",
            "city": "Perrymouth",
            "country": "Zambia"
          }
        },
        {
          "material_type": "https://en.wikipedia.org/wiki/ABS",
          "manufacturer": "Premium",
          "brand": "Professional",
          "supplier_location": {
            "address": {
              "number": "1965",
              "street": "Oconnor Falls",
              "city": "Nguyenside",
              "region": "North Dakota",
              "country": "China",
              "postcode": "01040"
            },
            "gps_coordinates": "49.471549, -26.969436",
            "directions": "Located behind Anderson-Romero",
            "city": "Nguyenside",
            "country": "China"
          }
        },
        {
          "material_type": "https://en.wikipedia.org/wiki/TPU",
          "manufacturer": "Brand B",
          "brand": "Industrial",
          "supplier_location": {
            "address": {
              "number": "4237",
              "street": "Joseph Harbors",
              "city": "Taylorfort",
              "region": "Maryland",
              "country": "Anguilla",
              "postcode": "03439"
            },
            "gps_coordinates": "35.371272, 33.683037",
            "directions": "Located behind Keller-Lewis",
            "city": "Taylorfort",
            "country": "Anguilla"
          }
        }
      ],
      "build_volume": 8000000,
      "nozzle_size": 0.4,
      "detailed_capabilities": {
        "layer_height_range": "0.1-0.3mm",
        "print_speed": "20-100mm/s",
        "temperature_range": "200-280°C",
        "bed_temperature": "60-100°C",
        "supported_formats": [
          "STL",
          "OBJ",
          "3MF"
        ],
        "supported_materials": [
          "PETG",
          "TPU"
        ],
        "process_parameters": {
          "setup_time": "114 minutes",
          "cycle_time": "35 minutes",
          "changeover_time": "45 minutes"
        }
      }
    },
    {
      "equipment_type": "https://en.wikipedia.org/wiki/Laser_cutter",
      "manufacturing_process": "https://en.wikipedia.org/wiki/Laser_cutting",
      "make": "Trotec",
      "model": "Speedy 300",
      "serial_number": "SN120504",
      "condition": "Needs Maintenance",
      "notes": "Equipment notes: Race impact discover trade bring sometimes.",
      "quantity": 4,
      "throughput": "87 parts/hour",
      "power_rating": 7890,
      "maintenance_schedule": "Every 4 months",
      "usage_levels": "Medium",
      "tolerance_class": "ISO 2768-f",
      "computer_controlled": true,
      "materials_worked": [
        {
          "material_type": "https://en.wikipedia.org/wiki/Acrylic",
          "manufacturer": "Brand B",
          "brand": "Standard",
          "supplier_location": {
            "address": {
              "number": "9501",
              "street": "Jason Circles",
              "city": "Smithland",
              "region": "Pennsylvania",
              "country": "Reunion",
              "postcode": "07098"
            },
            "gps_coordinates": "62.812439, 2.996193",
            "directions": "Located near Fowler-Stephenson",
            "city": "Smithland",
            "country": "Reunion"
          }
        },
        {
          "material_type": "https://en.wikipedia.org/wiki/Wood",
          "manufacturer": "Generic",
          "brand": "Professional",
          "supplier_location": {
            "address": {
              "number": "5120",
              "street": "Carlson Avenue",
              "city": "Jacobmouth",
              "region": "Ohio",
              "country": "Samoa",
              "postcode": "93155"
            },
            "gps_coordinates": "41.48335, -34.546542",
            "directions": "Located near Tran, Silva and Finley",
            "city": "Jacobmouth",
            "country": "Samoa"
          }
        },
        {
          "material_type": "https://en.wikipedia.org/wiki/Fabric",
          "manufacturer": "Premium",
          "brand": "Professional",
          "supplier_location": {
            "address": {
              "number": "3387",
              "street": "Melissa Vista",
              "city": "Charlestown",
              "region": "Texas",
              "country": "Pitcairn Islands",
              "postcode": "98158"
            },
            "gps_coordinates": "56.042491, -118.044252",
            "directions": "Located across from Jackson-Jones",
            "city": "Charlestown",
            "country": "Pitcairn Islands"
          }
        },
        {
          "material_type": "https://en.wikipedia.org/wiki/Leather",
          "manufacturer": "Premium",
          "brand": "Professional",
          "supplier_location": {
            "address": {
              "number": "8841",
              "street": "Wilson Streets",
              "city": "Mooreville",
              "region": "Missouri",
              "country": "Belarus",
              "postcode": "68971"
            },
            "gps_coordinates": "40.579123, -78.24961",
            "directions": "Located behind Green, Turner and Schwartz",
            "city": "Mooreville",
            "country": "Belarus"
          }
        }
      ],
      "laser_power": 100,
      "working_surface": 900,
      "detailed_capabilities": {
        "cutting_thickness": "0.1-25mm",
        "engraving_depth": "0.1-2mm",
        "cutting_speed": "1-1000 mm/min",
        "resolution": "1000 DPI",
        "supported_formats": [
          "DXF",
          "AI",
          "PDF"
        ],
        "supported_materials": [
          "Acrylic",
          "Leather"
        ],
        "process_parameters": {
          "setup_time": "100 minutes",
          "cycle_time": "27 minutes",
          "changeover_time": "42 minutes"
        }
      }
    },
    {
      "equipment_type": "https://en.wikipedia.org/wiki/CNC_router",
      "manufacturing_process": "https://en.wikipedia.org/wiki/CNC_router",
      "make": "Onefinity",
      "model": "Desktop",
      "serial_number": "SN109766",
      "condition": "Excellent",
      "notes": "Equipment notes: Around foreign share cold peace.",
      "quantity": 2,
      "throughput": "2 parts/hour",
      "power_rating": 4743,
      "maintenance_schedule": "Every 3 months",
      "usage_levels": "High",
      "tolerance_class": "ISO 2768-f",
      "uninterrupted_power_supply": true,
      "computer_controlled": true,
      "materials_worked": [
        {
          "material_type": "https://en.wikipedia.org/wiki/Wood",
          "manufacturer": "Brand B",
          "brand": "Standard",
          "supplier_location": {
            "address": {
              "number": "1228",
              "street": "Castillo Keys",
              "city": "Danielville",
              "region": "Louisiana",
              "country": "Eritrea",
              "postcode": "59462"
            },
            "gps_coordinates": "34.326768, -60.295747",
            "directions": "Located near Davis Ltd",
            "city": "Danielville",
            "country": "Eritrea"
          }
        },
        {
          "material_type": "https://en.wikipedia.org/wiki/Plastic",
          "manufacturer": "Brand A",
          "brand": "Industrial",
          "supplier_location": {
            "address": {
              "number": "1459",
              "street": "Chen Locks",
              "city": "New Angela",
              "region": "Connecticut",
              "country": "Albania",
              "postcode": "99931"
            },
            "gps_coordinates": "47.694766, -89.143124",
            "directions": "Located behind Long, Harris and Banks",
            "city": "New Angela",
            "country": "Albania"
          }
        },
        {
          "material_type": "https://en.wikipedia.org/wiki/Aluminum",
          "manufacturer": "Generic",
          "brand": "Professional",
          "supplier_location": {
            "address": {
              "number": "480",
              "street": "Davis Wall",
              "city": "Garciastad",
              "region": "Idaho",
              "country": "Italy",
              "postcode": "46277"
            },
            "gps_coordinates": "59.858823, -75.787469",
            "directions": "Located across from Cox-Jones",
            "city": "Garciastad",
            "country": "Italy"
          }
        },
        {
          "material_type": "https://en.wikipedia.org/wiki/Foam",
          "manufacturer": "Brand A",
          "brand": "Professional",
          "supplier_location": {
            "address": {
              "number": "6071",
              "street": "Stanton Green",
              "city": "Port Rhondamouth",
              "region": "Oregon",
              "country": "Dominican Republic",
              "postcode": "70807"
            },
            "gps_coordinates": "63.338446, -94.230401",
            "directions": "Located behind Pace, Hopkins and Walls",
            "city": "Port Rhondamouth",
            "country": "Dominican Republic"
          }
        }
      ],
      "axes": 3,
      "working_surface": 600,
      "detailed_capabilities": {
        "tolerance": "±0.1mm",
        "spindle_speed": "5000-24000 RPM",
        "feed_rate": "100-5000 mm/min",
        "tool_diameter": "0.5-25mm",
        "cutting_depth": "0.1-50mm",
        "tolerance_range": "±0.150mm",
        "supported_materials": [
          "Plastic",
          "Wood",
          "Aluminum",
          "Foam"
        ],
        "process_parameters": {
          "setup_time": "71 minutes",
          "cycle_time": "42 minutes",
          "changeover_time": "20 minutes"
        }
      }
    }
  ],
  "manufacturing_processes": [
    "https://en.wikipedia.org/wiki/3D_printer",
    "https://en.wikipedia.org/wiki/Laser_cutter",
    "https://en.wikipedia.org/wiki/CNC_router"
  ],
  "typical_batch_size": "0 -- 50 units",
  "floor_size": 1865,
  "storage_capacity": "143 cubic meters",
  "certifications": [
    "Basic Safety"
  ],
  "backup_generator": true,
  "road_access": true,
  "maintenance_schedule": "Every 6 months",
  "typical_products": [
    "Public-key attitude-oriented system engine",
    "Devolved interactive ability"
  ],
  "circular_economy": {
    "applies_principles": true,
    "by_products": [
      "health",
      "spring",
      "cold"
    ]
  },
  "human_capacity": {
    "headcount": 20
  },
  "innovation_space": {
    "staff": 3,
    "learning_resources": [
      "Inverse bottom-line knowledge user"
    ],
    "footfall": 100,
    "residencies": true
  },
  "record_data": {
    "date_created": "2025-10-10T15:45:06.888444",
    "created_by": {
      "name": "Lopez PLC",
      "location": {
        "address": {
          "number": "7062",
          "street": "Lewis Shore",
          "city": "Cantuburgh",
          "region": "Oklahoma",
          "country": "Palestinian Territory",
          "postcode": "14928"
        },
        "gps_coordinates": "25.460442, 13.232773",
        "directions": "Located near Choi-White",
        "city": "Cantuburgh",
        "country": "Palestinian Territory"
      },
      "contact_person": "Patricia House",
      "bio": "Established in 1999, we specialize in Down-sized motivating workforce",
      "website": "https://flynn.com",
      "languages": [
        "en",
        "fr"
      ],
      "mailing_list": "joseph04@lists.sanchez-villegas.com",
      "images": [
        "images/whatever.jpg",
        "images/science.jpg",
        "images/day.jpg"
      ],
      "contact": {
        "landline": "+1-219-686-3170",
        "mobile": "+1-304-831-6231",
        "email": "info@alvarez-best.info",
        "whatsapp": "+1-802-775-3058"
      },
      "social_media": {
        "facebook": "https://facebook.com/rowejames",
        "twitter": "@kenneth01",
        "instagram": "@danielle44",
        "other_urls": [
          "https://scott.com"
        ]
      }
    },
    "data_collection_method": "Direct observation"
  }
}