{
  "id": "b684daee-3bff-43ff-8b8d-d6f3d921aff7",
  "name": "Rapid Prototyping Lab",
  "location": {
    "address": {
      "number": "940",
      "street": "Lowe Green",
      "city": "Port Jennifer",
      "region": "North Dakota",
      "country": "Swaziland",
      "postcode": "43765"
    },
    "gps_coordinates": "43.771694, -43.134566",
    "directions": "Located near Williams Inc",
    "city": "Port Jennifer",
    "country": "Swaziland"
  },
  "facility_status": "Active",
  "owner": {
    "name": "Cunningham PLC",
    "location": {
      "address": {
        "number": "746",
        "street": "Jeremy Ports",
        "city": "Kevinland",
        "region": "Rhode Island",
        "country": "Myanmar",
        "postcode": "08486"
      },
      "gps_coordinates": "50.964857, -29.030107",
      "directions": "Located near Jones, Lawson and Arellano",
      "city": "Kevinland",
      "country": "Myanmar"
    },
    "contact_person": "Mitchell Navarro",
    "bio": "Established in 1993, we specialize in Realigned incremental middleware",
    "website": "https://wong.com",
    "languages": [
      "de",
      "es",
      "fr"
    ],
    "mailing_list": "felicia14@lists.wilson-potter.com",
    "images": [
      "images/professional.jpg"
    ],
    "contact": {
      "landline": "+1-789-563-5785",
      "mobile": "+1-428-549-2391",
      "email": "info@jones-cooper.info",
      "whatsapp": "+1-910-344-3985"
    },
    "social_media": {
      "facebook": "https://facebook.com/brockrussell",
      "instagram": "@kayleecaldwell",
      "other_urls": []
    }
  },
  "contact": {
    "name": "Carson, Graves and Mccann",
    "location": {
      "address": {
        "number": "7495",
        "street": "Paul Locks",
        "city": "Danielmouth",
        "region": "Alabama",
        "country": "Canada",
        "postcode": "84353"
      },
      "gps_coordinates": "26.251777, 14.255734",
      "directions": "Located near Johnson and Sons",
      "city": "Danielmouth",
      "country": "Canada"
    },
    "contact_person": "Christopher Hurley",
    "bio": "Established in 2006, we specialize in Exclusive asynchronous structure",
    "website": "https://jenkins.info",
    "languages": [
      "en",
      "es"
    ],
    "mailing_list": "ohanson@lists.ballard.com",
    "contact": {
      "landline": "+1-238-263-5010",
      "mobile": "+1-589-985-7756",
      "email": "info@murphy.net",
      "whatsapp": "+1-491-899-2524"
    },
    "social_media": {
      "other_urls": []
    }
  },
  "opening_hours": "Mon-Fri: 6:00-22:00",
  "description": "University research facility for rapid prototyping",
  "date_founded": "2009-03-24",
  "access_type": "Restricted with public hours",
  "wheelchair_accessibility": "Not accessible",
  "equipment": [
    {
      "equipment_type": "https://en.wikipedia.org/wiki/3D_printer",
      "manufacturing_process": "https://en.wikipedia.org/wiki/Fused_filament_fabrication",
      "make": "Ultimaker",
      "model": "i3 MK3S+",
      "serial_number": "SN820750",
      "condition": "Fair",
      "notes": "Equipment notes: Protect clear be maybe beautiful.",
      "quantity": 1,
      "throughput": "65 parts/hour",
      "power_rating": 2510,
      "maintenance_schedule": "Every 4 months",
      "usage_levels": "High",
      "tolerance_class": "ISO 2768-c",
      "computer_controlled": true,
      "materials_worked": [
        {
          "material_type": "https://en.wikipedia.org/wiki/PLA",
          "manufacturer": "Generic",
          "brand": "Standard",
          "supplier_location": {
            "address": {
              "number": "2828",
              "street": "Krista Lights",
              "city": "Nancyport",
              "region": "North Dakota",
              "country": "Netherlands",
              "postcode": "29281"
            },
            "gps_coordinates": "31.447131, -114.439126",
            "directions": "Located near Waters, Patton and Sharp",
            "city": "Nancyport",
            "country": "Netherlands"
          }
        },
        {
          "material_type": "https://en.wikipedia.org/wiki/PETG",
          "manufacturer": "Generic",
          "brand": "Standard",
          "supplier_location": {
            "address": {
              "number": "6199",
              "street": "Richard Centers",
              "city": "Port Gabriel",
              "region": "North Dakota",
              "country": "Eritrea",
              "postcode": "53166"
            },
            "gps_coordinates": "64.593799, -25.136834",
            "directions": "Located across from Ruiz-Lucero",
            "city": "Port Gabriel",
            "country": "Eritrea"
          }
        },
        {
          "material_type": "https://en.wikipedia.org/wiki/ABS",
          "manufacturer": "Brand B",
          "brand": "Standard",
          "supplier_location": {
            "address": {
              "number": "2789",
              "street": "Swanson Drive",
              "city": "Foleyberg",
              "region": "Vermont",
              "country": "French Southern Territories",
              "postcode": "36264"
            },
            "gps_coordinates": "30.225421, -124.446127",
            "directions": "Located near Miller-Shaw",
            "city": "Foleyberg",
            "country": "French Southern Territories"
          }
        },
        {
          "material_type": "https://en.wikipedia.org/wiki/TPU",
          "manufacturer": "Brand B",
          "brand": "Standard",
          "supplier_location": {
            "address": {
              "number": "1452",
              "street": "Leonard Pass",
              "city": "South Megan",
              "region": "Connecticut",
              "country": "Swaziland",
              "postcode": "92224"
            },
            "gps_coordinates": "58.281584, -52.92443",
            "directions": "Located behind Lewis-Turner",
            "city": "South Megan",
            "country": "Swaziland"
          }
        }
      ],
      "build_volume": 8000000,
      "nozzle_size": 0.6,
      "detailed_capabilities": {
        "layer_height_range": "0.1-0.3mm",
        "print_speed": "20-100mm/s",
        "temperature_range": "200-280°C",
        "bed_temperature": "60-100°C",
        "supported_formats": [
          "STL",
          "OBJ",
          "3MF"
        ],
        "supported_materials": [
          "PETG",
          "TPU"
        ],
        "process_parameters": {
          "setup_time": "44 minutes",
          "cycle_time": "16 minutes",
          "changeover_time": "42 minutes"
        }
      }
    },
    {
      "equipment_type": "https://en.wikipedia.org/wiki/SLA_printer",
      "manufacturing_process": "https://en.wikipedia.org/wiki/SLA_printer",
      "make": "Brand B",
      "model": "Model 349",
      "condition": "Good",
      "computer_controlled": true
    },
    {
      "equipment_type": "https://en.wikipedia.org/wiki/CNC_mill",
      "manufacturing_process": "https://en.wikipedia.org/wiki/Machining",
      "make": "Tormach",
      "model": "VTC-20",
      "serial_number": "SN488176",
      "condition": "Needs Maintenance",
      "notes": "Equipment notes: Development peace question subject recognize policy.",
      "quantity": 2,
      "throughput": "60 parts/hour",
      "power_rating": 2290,
      "maintenance_schedule": "Every 11 months",
      "usage_levels": "Low",
      "tolerance_class": "ISO 2768-c",
      "uninterrupted_power_supply": true,
      "computer_controlled": true,
      "materials_worked": [
        {
          "material_type": "https://en.wikipedia.org/wiki/Aluminum",
          "manufacturer": "Premium",
          "brand": "Industrial",
          "supplier_location": {
            "address": {
              "number": "6843",
              "street": "King Park",
              "city": "East Manuel",
              "region": "Rhode Island",
              "country": "Niue",
              "postcode": "21072"
            },
            "gps_coordinates": "48.154602, -104.645091",
            "directions": "Located near Mullins-Hunter",
            "city": "East Manuel",
            "country": "Niue"
          }
        },
        {
          "material_type": "https://en.wikipedia.org/wiki/Steel",
          "manufacturer": "Generic",
          "brand": "Industrial",
          "supplier_location": {
            "address": {
              "number": "4236",
              "street": "Anita Plaza",
              "city": "Port Ebony",
              "region": "Oklahoma",
              "country": "Guinea",
              "postcode": "77281"
            },
            "gps_coordinates": "44.389515, -83.339279",
            "directions": "Located across from Coleman, Sanchez and Bell",
            "city": "Port Ebony",
            "country": "Guinea"
          }
        },
        {
          "material_type": "https://en.wikipedia.org/wiki/Plastic",
          "manufacturer": "Brand B",
          "brand": "Professional",
          "supplier_location": {
            "address": {
              "number": "4244",
              "street": "Riley Haven",
              "city": "Lake Jessica",
              "region": "Wyoming",
              "country": "Bahrain",
              "postcode": "60925"
            },
            "gps_coordinates": "65.33155, -68.607335",
            "directions": "Located across from Lane, Bailey and Shelton",
            "city": "Lake Jessica",
            "country": "Bahrain"
          }
        },
        {
          "material_type": "https://en.wikipedia.org/wiki/Wood",
          "manufacturer": "Premium",
          "brand": "Standard",
          "supplier_location": {
            "address": {
              "number": "9401",
              "street": "Kirk Rue",
              "city": "Matthewland",
              "region": "Washington",
              "country": "Vanuatu",
              "postcode": "03005"
            },
            "gps_coordinates": "27.826813, -58.498017",
            "directions": "Located across from Frederick LLC",
            "city": "Matthewland",
            "country": "Vanuatu"
          }
        }
      ],
      "axes": 3,
      "working_surface": 800,
      "detailed_capabilities": {
        "tolerance": "±0.01mm",
        "surface_finish": "Ra 0.8-3.2μm",
        "spindle_speed": "1000-12000 RPM",
        "feed_rate": "100-2000 mm/min",
        "tool_changer": "Automatic",
        "tolerance_range": "±0.020mm",
        "supported_materials": [
          "Wood",
          "Aluminum",
          "Steel"
        ],
        "process_parameters": {
          "setup_time": "27 minutes",
          "cycle_time": "24 minutes",
          "changeover_time": "20 minutes"
        }
      }
    }
  ],
  "manufacturing_processes": [
    "https://en.wikipedia.org/wiki/3D_printer",
    "https://en.wikipedia.org/wiki/SLA_printer",
    "https://en.wikipedia.org/wiki/CNC_mill"
  ],
  "typical_batch_size": "0 -- 50 units",
  "floor_size": 1088,
  "storage_capacity": "194 cubic meters",
  "certifications": [
    "Research Grade"
  ],
  "backup_generator": true,
  "uninterrupted_power_supply": true,
  "road_access": true,
  "maintenance_schedule": "Every 6 months",
  "typical_products": [
    "Open-architected 24/7 circuit"
  ],
  "human_capacity": {
    "headcount": 43
  },
  "innovation_space": {
    "staff": 1,
    "learning_resources": [
      "Re-contextualized context-sensitive superstructure",
      "Customer-focused client-driven alliance"
    ],
    "services": [
      "Quality-focused national concept",
      "Monitored bi-directional open system",
      "Vision-oriented clear-thinking collaboration",
      "Visionary national hierarchy"
    ],
    "footfall": 45
  },
  "record_data": {
    "date_created": "2025-10-10T15:45:06.869075",
    "created_by": {
      "name": "Williams-Aguilar",
      "location": {
        "address": {
          "number": "1332",
          "street": "Kristen Parkways",
          "city": "Port Joshuafurt",
          "region": "Vermont",
          "country": "Martinique",
          "postcode": "50723"
        },
        "gps_coordinates": "46.018622, -19.488551",
        "directions": "Located behind Good-Morris",
        "city": "Port Joshuafurt",
        "country": "Martinique"
      },
      "contact_person": "Frank Mitchell",
      "bio": "Established in 2013, we specialize in Profit-focused composite encoding",
      "website": "https://clark-king.org",
      "languages": [
        "fr"
      ],
      "mailing_list": "kevinmoore@lists.king.net",
      "images": [
        "images/east.jpg",
        "images/father.jpg",
        "images/rate.jpg"
      ],
      "contact": {
        "landline": "+1-328-990-4536",
        "mobile": "+1-708-853-2916",
        "email": "info@hodges-austin.com",
        "whatsapp": "+1-872-784-3424"
      },
      "social_media": {
        "facebook": "https://facebook.com/mullinskaren",
        "twitter": "@daniel50",
        "instagram": "@huntlance",
        "other_urls": [
          "https://williams-williams.net"
        ]
      }
    },
    "data_collection_method": "Survey"
  }
}