{
  "id": "df6c3cf3-0477-416f-bcda-473e1a8690ec",
  "name": "Community Makerspace",
  "location": {
    "address": {
      "number": "9461",
      "street": "Jessica Wells",
      "city": "Lake Adamfort",
      "region": "Tennessee",
      "country": "Zambia",
      "postcode": "03471"
    },
    "gps_coordinates": "31.556719, -5.434069",
    "directions": "Located near Navarro Ltd",
    "city": "Lake Adamfort",
    "country": "Zambia"
  },
  "facility_status": "Active",
  "owner": {
    "name": "Byrd, Alexander and Stanley",
    "location": {
      "address": {
        "number": "1125",
        "street": "Ana Views",
        "city": "South Jefferyfurt",
        "region": "Vermont",
        "country": "Anguilla",
        "postcode": "75130"
      },
      "gps_coordinates": "37.679569, -63.822381",
      "directions": "Located near Leon and Sons",
      "city": "South Jefferyfurt",
      "country": "Anguilla"
    },
    "contact_person": "Gwendolyn Blanchard",
    "bio": "Established in 1992, we specialize in Face-to-face well-modulated function",
    "website": "https://fisher.info",
    "languages": [
      "de",
      "es"
    ],
    "mailing_list": "stephenwoods@lists.weaver-sanders.biz",
    "images": [
      "images/your.jpg",
      "images/how.jpg",
      "images/employee.jpg"
    ],
    "contact": {
      "landline": "+1-419-758-6024",
      "mobile": "+1-844-823-5901",
      "email": "info@holmes-lawrence.net",
      "whatsapp": "+1-742-729-6027"
    },
    "social_media": {
      "instagram": "@colliercaroline",
      "other_urls": [
        "https://crawford-nelson.net",
        "https://smith.com"
      ]
    }
  },
  "contact": {
    "name": "Armstrong-Atkins",
    "location": {
      "address": {
        "number": "7615",
        "street": "Thomas Islands",
        "city": "Kennethberg",
        "region": "Tennessee",
        "country": "Denmark",
        "postcode": "50871"
      },
      "gps_coordinates": "44.152729, -82.16514",
      "directions": "Located near Young, Edwards and Thompson",
      "city": "Kennethberg",
      "country": "Denmark"
    },
    "contact_person": "Amber Mcclain",
    "bio": "Established in 1999, we specialize in User-friendly zero-defect groupware",
    "website": "https://torres.net",
    "languages": [
      "de"
    ],
    "mailing_list": "amanda62@lists.jackson-schroeder.net",
    "contact": {
      "landline": "+1-395-852-1761",
      "mobile": "+1-744-663-7357",
      "email": "info@watson.com",
      "whatsapp": "+1-670-916-2111"
    },
    "social_media": {
      "instagram": "@wardbrandy",
      "other_urls": [
        "https://king.com"
      ]
    }
  },
  "opening_hours": "Mon-Fri: 9:00-17:00",
  "description": "Public makerspace with basic fabrication equipment",
  "date_founded": "2001-02-19",
  "access_type": "Membership",
  "wheelchair_accessibility": "Partially accessible",
  "equipment": [
    {
      "equipment_type": "https://en.wikipedia.org/wiki/3D_printer",
      "manufacturing_process": "https://en.wikipedia.org/wiki/Fused_filament_fabrication",
      "make": "Prusa",
      "model": "S5",
      "serial_number": "SN955600",
      "condition": "Needs Maintenance",
      "notes": "Equipment notes: Leader quickly level.",
      "quantity": 5,
      "throughput": "27 parts/hour",
      "power_rating": 4276,
      "maintenance_schedule": "Every 7 months",
      "usage_levels": "Medium",
      "tolerance_class": "ISO 2768-m",
      "computer_controlled": true,
      "extraction_system": true,
      "materials_worked": [
        {
          "material_type": "https://en.wikipedia.org/wiki/PLA",
          "manufacturer": "Generic",
          "brand": "Industrial",
          "supplier_location": {
            "address": {
              "number": "5486",
              "street": "Jacqueline Shoal",
              "city": "South Rachelview",
              "region": "Wyoming",
              "country": "United States Minor Outlying Islands",
              "postcode": "64470"
            },
            "gps_coordinates": "41.597112, -81.159162",
            "directions": "Located behind Quinn Group",
            "city": "South Rachelview",
            "country": "United States Minor Outlying Islands"
          }
        },
        {
          "material_type": "https://en.wikipedia.org/wiki/PETG",
          "manufacturer": "Brand A",
          "brand": "Standard",
          "supplier_location": {
            "address": {
              "number": "3070",
              "street": "Lynch Gateway",
              "city": "Danielport",
              "region": "Oklahoma",
              "country": "South Georgia and the South Sandwich Islands",
              "postcode": "14207"
            },
            "gps_coordinates": "60.599194, -103.811829",
            "directions": "Located near Collins, Bates and Johns",
            "city": "Danielport",
            "country": "South Georgia and the South Sandwich Islands"
          }
        },
        {
          "material_type": "https://en.wikipedia.org/wiki/ABS",
          "manufacturer": "Generic",
          "brand": "Standard",
          "supplier_location": {
            "address": {
              "number": "1206",
              "street": "Sanders Camp",
              "city": "Ericfurt",
              "region": "Idaho",
              "country": "United States of America",
              "postcode": "30681"
            },
            "gps_coordinates": "51.758556, -119.293026",
            "directions": "Located across from Huang Inc",
            "city": "Ericfurt",
            "country": "United States of America"
          }
        },
        {
          "material_type": "https://en.wikipedia.org/wiki/TPU",
          "manufacturer": "Premium",
          "brand": "Standard",
          "supplier_location": {
            "address": {
              "number": "3361",
              "street": "Heather Villages",
              "city": "Annetteton",
              "region": "Kentucky",
              "country": "Swaziland",
              "postcode": "67838"
            },
            "gps_coordinates": "51.240504, -26.140456",
            "directions": "Located near Krueger, Zamora and Snyder",
            "city": "Annetteton",
            "country": "Swaziland"
          }
        }
      ],
      "build_volume": 8000000,
      "nozzle_size": 0.6,
      "detailed_capabilities": {
        "layer_height_range": "0.1-0.3mm",
        "print_speed": "20-100mm/s",
        "temperature_range": "200-280°C",
        "bed_temperature": "60-100°C",
        "supported_formats": [
          "STL",
          "OBJ",
          "3MF"
        ],
        "supported_materials": [
          "TPU",
          "PETG",
          "ABS"
        ],
        "process_parameters": {
          "setup_time": "31 minutes",
          "cycle_time": "57 minutes",
          "changeover_time": "21 minutes"
        }
      }
    },
    {
      "equipment_type": "https://en.wikipedia.org/wiki/Laser_cutter",
      "manufacturing_process": "https://en.wikipedia.org/wiki/Laser_cutting",
      "make": "Universal",
      "model": "Speedy 300",
      "serial_number": "SN287585",
      "condition": "Fair",
      "notes": "Equipment notes: Everyone economic deal page international.",
      "quantity": 1,
      "throughput": "65 parts/hour",
      "power_rating": 8282,
      "maintenance_schedule": "Every 2 months",
      "usage_levels": "Medium",
      "tolerance_class": "ISO 2768-c",
      "uninterrupted_power_supply": true,
      "computer_controlled": true,
      "materials_worked": [
        {
          "material_type": "https://en.wikipedia.org/wiki/Acrylic",
          "manufacturer": "Brand B",
          "brand": "Industrial",
          "supplier_location": {
            "address": {
              "number": "7163",
              "street": "Buchanan Park",
              "city": "New Christopher",
              "region": "Rhode Island",
              "country": "Cambodia",
              "postcode": "33903"
            },
            "gps_coordinates": "68.420658, -65.840479",
            "directions": "Located behind Jackson PLC",
            "city": "New Christopher",
            "country": "Cambodia"
          }
        },
        {
          "material_type": "https://en.wikipedia.org/wiki/Wood",
          "manufacturer": "Brand B",
          "brand": "Professional",
          "supplier_location": {
            "address": {
              "number": "7468",
              "street": "Michael Court",
              "city": "Lopezfurt",
              "region": "Wisconsin",
              "country": "Mali",
              "postcode": "01913"
            },
            "gps_coordinates": "54.121094, -12.055577",
            "directions": "Located behind Wright, Evans and Aguilar",
            "city": "Lopezfurt",
            "country": "Mali"
          }
        },
        {
          "material_type": "https://en.wikipedia.org/wiki/Fabric",
          "manufacturer": "Brand A",
          "brand": "Standard",
          "supplier_location": {
            "address": {
              "number": "7487",
              "street": "Leslie Square",
              "city": "Lake Mark",
              "region": "Washington",
              "country": "Grenada",
              "postcode": "08308"
            },
            "gps_coordinates": "33.504808, 9.543432",
            "directions": "Located near Acosta, Charles and Gonzales",
            "city": "Lake Mark",
            "country": "Grenada"
          }
        },
        {
          "material_type": "https://en.wikipedia.org/wiki/Leather",
          "manufacturer": "Generic",
          "brand": "Standard",
          "supplier_location": {
            "address": {
              "number": "5173",
              "street": "Michael Landing",
              "city": "Griffinville",
              "region": "Georgia",
              "country": "Slovenia",
              "postcode": "35006"
            },
            "gps_coordinates": "48.305252, -88.712243",
            "directions": "Located behind Pham PLC",
            "city": "Griffinville",
            "country": "Slovenia"
          }
        }
      ],
      "laser_power": 30,
      "working_surface": 600,
      "detailed_capabilities": {
        "cutting_thickness": "0.1-25mm",
        "engraving_depth": "0.1-2mm",
        "cutting_speed": "1-1000 mm/min",
        "resolution": "1000 DPI",
        "supported_formats": [
          "DXF",
          "AI",
          "PDF"
        ],
        "supported_materials": [
          "Leather",
          "Wood",
          "Fabric",
          "Acrylic"
        ],
        "process_parameters": {
          "setup_time": "71 minutes",
          "cycle_time": "18 minutes",
          "changeover_time": "35 minutes"
        }
      }
    },
    {
      "equipment_type": "https://en.wikipedia.org/wiki/CNC_router",
      "manufacturing_process": "https://en.wikipedia.org/wiki/CNC_router",
      "make": "Axiom",
      "model": "XXL",
      "serial_number": "SN341497",
      "condition": "Needs Maintenance",
      "notes": "Equipment notes: Claim player although when professional travel.",
      "quantity": 2,
      "throughput": "59 parts/hour",
      "power_rating": 1533,
      "maintenance_schedule": "Every 6 months",
      "usage_levels": "Low",
      "tolerance_class": "ISO 2768-f",
      "computer_controlled": true,
      "extraction_system": true,
      "materials_worked": [
        {
          "material_type": "https://en.wikipedia.org/wiki/Wood",
          "manufacturer": "Generic",
          "brand": "Professional",
          "supplier_location": {
            "address": {
              "number": "2294",
              "street": "Johnson Union",
              "city": "Markborough",
              "region": "Hawaii",
              "country": "Chile",
              "postcode": "95759"
            },
            "gps_coordinates": "59.020004, -45.251525",
            "directions": "Located near Bautista, Burns and Guerrero",
            "city": "Markborough",
            "country": "Chile"
          }
        },
        {
          "material_type": "https://en.wikipedia.org/wiki/Plastic",
          "manufacturer": "Premium",
          "brand": "Industrial",
          "supplier_location": {
            "address": {
              "number": "7123",
              "street": "Rebecca Well",
              "city": "Christiestad",
              "region": "Delaware",
              "country": "Lebanon",
              "postcode": "73078"
            },
            "gps_coordinates": "45.563192, -72.735863",
            "directions": "Located behind Gonzales, Smith and Prince",
            "city": "Christiestad",
            "country": "Lebanon"
          }
        },
        {
          "material_type": "https://en.wikipedia.org/wiki/Aluminum",
          "manufacturer": "Premium",
          "brand": "Standard",
          "supplier_location": {
            "address": {
              "number": "4203",
              "street": "Rivera Burg",
              "city": "Lake Brianside",
              "region": "Georgia",
              "country": "Pitcairn Islands",
              "postcode": "68928"
            },
            "gps_coordinates": "49.850504, -6.074082",
            "directions": "Located across from Lin, Williams and Parker",
            "city": "Lake Brianside",
            "country": "Pitcairn Islands"
          }
        },
        {
          "material_type": "https://en.wikipedia.org/wiki/Foam",
          "manufacturer": "Brand A",
          "brand": "Professional",
          "supplier_location": {
            "address": {
              "number": "3959",
              "street": "King Crossing",
              "city": "East Joe",
              "region": "Alabama",
              "country": "Svalbard & Jan Mayen Islands",
              "postcode": "53388"
            },
            "gps_coordinates": "49.804534, 8.677997",
            "directions": "Located near Riddle-Bell",
            "city": "East Joe",
            "country": "Svalbard & Jan Mayen Islands"
          }
        }
      ],
      "axes": 4,
      "working_surface": 600,
      "detailed_capabilities": {
        "tolerance": "±0.1mm",
        "spindle_speed": "5000-24000 RPM",
        "feed_rate": "100-5000 mm/min",
        "tool_diameter": "0.5-25mm",
        "cutting_depth": "0.1-50mm",
        "tolerance_range": "±0.150mm",
        "supported_materials": [
          "Foam",
          "Aluminum"
        ],
        "process_parameters": {
          "setup_time": "69 minutes",
          "cycle_time": "6 minutes",
          "changeover_time": "17 minutes"
        }
      }
    }
  ],
  "manufacturing_processes": [
    "https://en.wikipedia.org/wiki/3D_printer",
    "https://en.wikipedia.org/wiki/Laser_cutter",
    "https://en.wikipedia.org/wiki/CNC_router"
  ],
  "typical_batch_size": "0 -- 50 units",
  "floor_size": 4156,
  "storage_capacity": "241 cubic meters",
  "certifications": [
    "Basic Safety"
  ],
  "uninterrupted_power_supply": true,
  "road_access": true,
  "loading_dock": true,
  "maintenance_schedule": "Every 6 months",
  "typical_products": [
    "Multi-tiered modular instruction set"
  ],
  "human_capacity": {
    "headcount": 8
  },
  "innovation_space": {
    "staff": 6,
    "learning_resources": [
      "Inverse leadingedge parallelism",
      "Synergized modular website",
      "Configurable heuristic access"
    ],
    "services": [
      "Multi-channeled coherent pricing structure"
    ],
    "footfall": 100
  },
  "record_data": {
    "date_created": "2025-10-10T15:45:06.858781",
    "created_by": {
      "name": "Atkinson-Baker",
      "location": {
        "address": {
          "number": "341",
          "street": "Brandon Stream",
          "city": "Nunezton",
          "region": "Maryland",
          "country": "Nauru",
          "postcode": "95042"
        },
        "gps_coordinates": "47.607257, -104.196928",
        "directions": "Located near Mckee Ltd",
        "city": "Nunezton",
        "country": "Nauru"
      },
      "contact_person": "Jason Vaughn",
      "bio": "Established in 2015, we specialize in Adaptive optimal knowledge user",
      "website": "https://clark.com",
      "languages": [
        "de"
      ],
      "mailing_list": "john94@lists.castro-olson.com",
      "contact": {
        "landline": "+1-676-908-7977",
        "mobile": "+1-643-220-1926",
        "email": "info@brown-richardson.com",
        "whatsapp": "+1-820-239-4651"
      },
      "social_media": {
        "facebook": "https://facebook.com/michaelcarrillo",
        "twitter": "@wmccall",
        "instagram": "@adyer",
        "other_urls": [
          "https://romero.info"
        ]
      }
    },
    "data_collection_method": "Interview"
  }
}