{
  "id": "e0b7ac89-db86-435a-b59e-4c514985f27f",
  "name": "Rapid Prototyping Lab",
  "location": {
    "address": {
      "number": "2062",
      "street": "Seth Passage",
      "city": "West Anthony",
      "region": "Texas",
      "country": "Svalbard & Jan Mayen Islands",
      "postcode": "11834"
    },
    "gps_coordinates": "38.517602, -74.946344",
    "directions": "Located behind Soto, Clark and Burns",
    "city": "West Anthony",
    "country": "Svalbard & Jan Mayen Islands"
  },
  "facility_status": "Active",
  "owner": {
    "name": "Morales, Mejia and Strickland",
    "location": {
      "address": {
        "number": "8824",
        "street": "Jennifer Ridges",
        "city": "Donaldhaven",
        "region": "Georgia",
        "country": "Ghana",
        "postcode": "50793"
      },
      "gps_coordinates": "56.395946, -65.145368",
      "directions": "Located behind Finley-Russell",
      "city": "Donaldhaven",
      "country": "Ghana"
    },
    "contact_person": "Jeremy Owens",
    "bio": "Established in 1991, we specialize in Focused value-added superstructure",
    "website": "https://wilson-harris.com",
    "languages": [
      "en",
      "de",
      "es"
    ],
    "mailing_list": "patricia46@lists.cannon.info",
    "images": [
      "images/husband.jpg"
    ],
    "contact": {
      "landline": "+1-252-585-4995",
      "mobile": "+1-403-460-7931",
      "email": "info@chaney.com",
      "whatsapp": "+1-256-359-6009"
    },
    "social_media": {
      "facebook": "https://facebook.com/rachel37",
      "twitter": "@pdavidson",
      "instagram": "@uphillips",
      "other_urls": [
        "https://carroll.org",
        "https://wagner-hancock.com"
      ]
    }
  },
  "contact": {
    "name": "Daniel, Campbell and Garrett",
    "location": {
      "address": {
        "number": "6695",
        "street": "Rice Track",
        "city": "Lake Pamela",
        "region": "Georgia",
        "country": "Slovakia (Slovak Republic)",
        "postcode": "91448"
      },
      "gps_coordinates": "29.718886, -43.848961",
      "directions": "Located behind Perry LLC",
      "city": "Lake Pamela",
      "country": "Slovakia (Slovak Republic)"
    },
    "contact_person": "Richard Wilson",
    "bio": "Established in 2010, we specialize in Monitored secondary info-mediaries",
    "website": "https://white-webb.com",
    "languages": [
      "es"
    ],
    "mailing_list": "richardhaas@lists.hensley.com",
    "contact": {
      "landline": "+1-304-543-1905",
      "mobile": "+1-342-776-7172",
      "email": "info@hoffman.org",
      "whatsapp": "+1-957-368-5435"
    },
    "social_media": {
      "facebook": "https://facebook.com/juliacarpenter",
      "other_urls": [
        "https://scott.com"
      ]
    }
  },
  "opening_hours": "Mon-Fri: 7:00-22:00",
  "description": "University research facility for rapid prototyping",
  "date_founded": "2004-08-10",
  "access_type": "Restricted with public hours",
  "wheelchair_accessibility": "Partially accessible",
  "equipment": [
    {
      "equipment_type": "https://en.wikipedia.org/wiki/3D_printer",
      "manufacturing_process": "https://en.wikipedia.org/wiki/Fused_filament_fabrication",
      "make": "Formlabs",
      "model": "Form 3",
      "serial_number": "SN356170",
      "condition": "Needs Maintenance",
      "notes": "Equipment notes: Itself pick different method should determine.",
      "quantity": 4,
      "throughput": "19 parts/hour",
      "power_rating": 3888,
      "maintenance_schedule": "Every 12 months",
      "usage_levels": "Low",
      "tolerance_class": "ISO 2768-m",
      "uninterrupted_power_supply": true,
      "computer_controlled": true,
      "materials_worked": [
        {
          "material_type": "https://en.wikipedia.org/wiki/PLA",
          "manufacturer": "Brand B",
          "brand": "Professional",
          "supplier_location": {
            "address": {
              "number": "7295",
              "street": "Simpson Lodge",
              "city": "Meyerview",
              "region": "Utah",
              "country": "Trinidad and Tobago",
              "postcode": "07327"
            },
            "gps_coordinates": "43.26065, -2.631934",
            "directions": "Located near Beard, Hensley and Martinez",
            "city": "Meyerview",
            "country": "Trinidad and Tobago"
          }
        },
        {
          "material_type": "https://en.wikipedia.org/wiki/PETG",
          "manufacturer": "Premium",
          "brand": "Industrial",
          "supplier_location": {
            "address": {
              "number": "93",
              "street": "Justin Divide",
              "city": "North Thomas",
              "region": "South Dakota",
              "country": "Ethiopia",
              "postcode": "43848"
            },
            "gps_coordinates": "43.506785, -46.002928",
            "directions": "Located behind Gibson and Sons",
            "city": "North Thomas",
            "country": "Ethiopia"
          }
        },
        {
          "material_type": "https://en.wikipedia.org/wiki/ABS",
          "manufacturer": "Premium",
          "brand": "Standard",
          "supplier_location": {
            "address": {
              "number": "9482",
              "street": "Hill Vista",
              "city": "South Jessica",
              "region": "Kentucky",
              "country": "Jamaica",
              "postcode": "08775"
            },
            "gps_coordinates": "36.446511, -84.478696",
            "directions": "Located near Burton, Moore and Miller",
            "city": "South Jessica",
            "country": "Jamaica"
          }
        },
        {
          "material_type": "https://en.wikipedia.org/wiki/TPU",
          "manufacturer": "Generic",
          "brand": "Standard",
          "supplier_location": {
            "address": {
              "number": "4057",
              "street": "Jonathan Terrace",
              "city": "East Joshuatown",
              "region": "Iowa",
              "country": "Sweden",
              "postcode": "08069"
            },
            "gps_coordinates": "68.539591, -16.153138",
            "directions": "Located near Williamson Inc",
            "city": "East Joshuatown",
            "country": "Sweden"
          }
        }
      ],
      "build_volume": 8000000,
      "nozzle_size": 0.6,
      "detailed_capabilities": {
        "layer_height_range": "0.1-0.3mm",
        "print_speed": "20-100mm/s",
        "temperature_range": "200-280°C",
        "bed_temperature": "60-100°C",
        "supported_formats": [
          "STL",
          "OBJ",
          "3MF"
        ],
        "supported_materials": [
          "PETG",
          "PLA",
          "TPU",
          "ABS"
        ],
        "process_parameters": {
          "setup_time": "57 minutes",
          "cycle_time": "28 minutes",
          "changeover_time": "37 minutes"
        }
      }
    },
    {
      "equipment_type": "https://en.wikipedia.org/wiki/SLA_printer",
      "manufacturing_process": "https://en.wikipedia.org/wiki/SLA_printer",
      "make": "Brand A",
      "model": "Model 387",
      "condition": "Excellent",
      "computer_controlled": true
    },
    {
      "equipment_type": "https://en.wikipedia.org/wiki/CNC_mill",
      "manufacturing_process": "https://en.wikipedia.org/wiki/Machining",
      "make": "Haas",
      "model": "PCNC 440",
      "serial_number": "SN431126",
      "condition": "Fair",
      "notes": "Equipment notes: Popular fight physical.",
      "quantity": 2,
      "throughput": "76 parts/hour",
      "power_rating": 2876,
      "maintenance_schedule": "Every 7 months",
      "usage_levels": "High",
      "tolerance_class": "ISO 2768-f",
      "uninterrupted_power_supply": true,
      "computer_controlled": true,
      "materials_worked": [
        {
          "material_type": "https://en.wikipedia.org/wiki/Aluminum",
          "manufacturer": "Brand A",
          "brand": "Standard",
          "supplier_location": {
            "address": {
              "number": "2696",
              "street": "Miller Village",
              "city": "South Catherinehaven",
              "region": "Vermont",
              "country": "Pitcairn Islands",
              "postcode": "20641"
            },
            "gps_coordinates": "32.884623, -53.999492",
            "directions": "Located near Warner-Cooley",
            "city": "South Catherinehaven",
            "country": "Pitcairn Islands"
          }
        },
        {
          "material_type": "https://en.wikipedia.org/wiki/Steel",
          "manufacturer": "Brand B",
          "brand": "Industrial",
          "supplier_location": {
            "address": {
              "number": "837",
              "street": "Robbins Throughway",
              "city": "North Danielle",
              "region": "Michigan",
              "country": "Iraq",
              "postcode": "85121"
            },
            "gps_coordinates": "39.132489, -115.201466",
            "directions": "Located near White-Klein",
            "city": "North Danielle",
            "country": "Iraq"
          }
        },
        {
          "material_type": "https://en.wikipedia.org/wiki/Plastic",
          "manufacturer": "Premium",
          "brand": "Industrial",
          "supplier_location": {
            "address": {
              "number": "3029",
              "street": "Cruz Motorway",
              "city": "Amandahaven",
              "region": "Maryland",
              "country": "Nepal",
              "postcode": "57201"
            },
            "gps_coordinates": "65.168598, 2.260769",
            "directions": "Located near Pratt, Lee and Torres",
            "city": "Amandahaven",
            "country": "Nepal"
          }
        },
        {
          "material_type": "https://en.wikipedia.org/wiki/Wood",
          "manufacturer": "Premium",
          "brand": "Professional",
          "supplier_location": {
            "address": {
              "number": "7012",
              "street": "Diane Shoals",
              "city": "Lake Williamberg",
              "region": "Virginia",
              "country": "Comoros",
              "postcode": "75878"
            },
            "gps_coordinates": "26.686441, -114.576184",
            "directions": "Located across from Stevens and Sons",
            "city": "Lake Williamberg",
            "country": "Comoros"
          }
        }
      ],
      "axes": 5,
      "working_surface": 600,
      "detailed_capabilities": {
        "tolerance": "±0.01mm",
        "surface_finish": "Ra 0.8-3.2μm",
        "spindle_speed": "1000-12000 RPM",
        "feed_rate": "100-2000 mm/min",
        "tool_changer": "Automatic",
        "tolerance_range": "±0.020mm",
        "supported_materials": [
          "Steel",
          "Aluminum",
          "Wood"
        ],
        "process_parameters": {
          "setup_time": "30 minutes",
          "cycle_time": "38 minutes",
          "changeover_time": "40 minutes"
        }
      }
    }
  ],
  "manufacturing_processes": [
    "https://en.wikipedia.org/wiki/3D_printer",
    "https://en.wikipedia.org/wiki/SLA_printer",
    "https://en.wikipedia.org/wiki/CNC_mill"
  ],
  "typical_batch_size": "0 -- 50 units",
  "floor_size": 3481,
  "storage_capacity": "784 cubic meters",
  "certifications": [
    "Research Grade"
  ],
  "backup_generator": true,
  "uninterrupted_power_supply": true,
  "road_access": true,
  "loading_dock": true,
  "maintenance_schedule": "Every 5 months",
  "typical_products": [
    "Programmable mission-critical support"
  ],
  "circular_economy": {
    "applies_principles": true,
    "by_products": [
      "give"
    ]
  },
  "human_capacity": {
    "headcount": 31
  },
  "innovation_space": {
    "staff": 7,
    "learning_resources": [
      "Total encompassing portal",
      "Polarized transitional intranet",
      "Optimized fault-tolerant framework",
      "Monitored dynamic hub",
      "User-friendly coherent forecast"
    ],
    "services": [
      "Optional well-modulated system engine"
    ],
    "footfall": 92
  },
  "record_data": {
    "date_created": "2025-10-10T15:45:06.845429",
    "created_by": {
      "name": "Allen, Waters and Ross",
      "location": {
        "address": {
          "number": "9669",
          "street": "Melissa Greens",
          "city": "Jessicabury",
          "region": "Hawaii",
          "country": "Yemen",
          "postcode": "21366"
        },
        "gps_coordinates": "37.624214, -54.699367",
        "directions": "Located across from King-Romero",
        "city": "Jessicabury",
        "country": "Yemen"
      },
      "contact_person": "Andrew Lee",
      "bio": "Established in 2011, we specialize in Visionary heuristic concept",
      "website": "https://murphy.com",
      "languages": [
        "fr",
        "en"
      ],
      "mailing_list": "boothchristopher@lists.payne.com",
      "contact": {
        "landline": "+1-261-562-7503",
        "mobile": "+1-966-469-3558",
        "email": "info@mann-taylor.com",
        "whatsapp": "+1-245-629-3021"
      },
      "social_media": {
        "facebook": "https://facebook.com/jknox",
        "other_urls": [
          "https://white-walker.com"
        ]
      }
    },
    "data_collection_method": "Survey"
  }
}